pk_name,pk_address,pk_code,pk_type_cd,pk_type_nm,oper_se,oper_se_nm,phone,weekday_start,weekday_end,weekend_start,weekend_end,holi_start,holi_end,parking_space,fee_type,basic_fee,basic_time,extra_fee,extra_time,daily_max_fee,monthly_fee,latitude,longitude,coord_src,PRK_STTS_YN,PRK_STTS_NM,NOW_PRK_VHCL_CNT,NOW_PRK_VHCL_UPDT_TM,PAY_YN,PAY_YN_NM,NGHT_PAY_YN,NGHT_PAY_YN_NM,LHLDY_OPER_BGNG_TM,LHLDY_OPER_END_TM,LHLDY_CHGD_FREE_SE,LHLDY_CHGD_FREE_SE_NAME,PRD_AMT,STRT_PKLT_MNG_NO,BSC_PRK_CRG,BSC_PRK_HR,ADD_PRK_CRG,ADD_PRK_HR,BUS_BSC_PRK_CRG,BUS_BSC_PRK_HR,BUS_ADD_PRK_HR,BUS_ADD_PRK_CRG,DAY_MAX_CRG,SHRN_PKLT_MNG_NM,SHRN_PKLT_MNG_URL,SHRN_PKLT_YN,SHRN_PKLT_ETC,collected_at,카카오맵_매칭된_주차장명,카카오맵_유사도,카카오맵_별점,카카오맵_리뷰수,카카오맵_URL,카카오맵_후기_URL
마장동(건물) 공영주차장(구),성동구 마장동 463-2,1013181,NW,노외 주차장,1,시간제 주차장,02-2204-7970,0,2400,0.0,2400.0,0.0,2400.0,52,유료,50.0,5.0,,,,20000.0,37.5699393404733,127.035135249291,카카오,,,,,,,,,,,,,,,,,,,,,,,,,,,,2026-06-28 01:08:04,마장동 공영주차장,100.0%,평가 없음,0,https://place.map.kakao.com/9205446,
영등포여고 공영(구),영등포구 신길동 184-3,1025695,NW,노외 주차장,1,시간제 주차장,02-2677-1401,0,2400,0.0,2400.0,0.0,2400.0,98,유료,50.0,5.0,50.0,5.0,,65000.0,37.5152323474497,126.91529156353,카카오,,,,,,,,,,,,,,,,,,,,,,,,,,,,2026-06-28 01:08:04,,,조건 불일치 제외,,,
당산근린공원 공영(구),영등포구 당산동3가 385-0,1025696,NW,노외 주차장,1,시간제 주차장,02-2677-1401,0,2400,0.0,2400.0,0.0,2400.0,190,유료,150.0,5.0,150.0,5.0,,100000.0,37.5255122202678,126.895769419966,카카오,,,,,,,,,,,,,,,,,,,,,,,,,,,,2026-06-28 01:08:05,당산근린공원공영주차장,100.0%,평가 없음,0,https://place.map.kakao.com/27138985,
대림운동장(구),영등포구 대림동 780-0,1025697,NW,노외 주차장,1,시간제 주차장,02-2677-1401,0,2400,0.0,2400.0,0.0,2400.0,192,유료,50.0,5.0,50.0,5.0,,65000.0,37.4996905784057,126.894703834406,카카오,,,,,,,,,,,,,,,,,,,,,,,,,,,,2026-06-28 01:08:06,대림운동장 공영주차장,88.9%,평가 없음,0,https://place.map.kakao.com/226047629,
은평평화공원지하 공영주차장(구),은평구 녹번동 153-1,1032247,NW,노외 주차장,1,시간제 주차장,02-350-5183,0,2400,0.0,2400.0,0.0,2400.0,66,유료,150.0,5.0,150.0,5.0,,120000.0,37.6053518906412,126.923140000525,카카오,,,,,,,,,,,,,,,,,,,,,,,,,,,,2026-06-28 01:08:06,은평평화공원 공영주차장,91.7%,5.0,2,https://place.map.kakao.com/20562858,https://place.map.kakao.com/20562858#review
압구정 428 공영주차장(구),강남구 압구정동 428-0,1033125,NW,노외 주차장,1,시간제 주차장,02-2176-0971,900,2100,900.0,2100.0,900.0,2100.0,344,유료,400.0,5.0,400.0,5.0,,200000.0,37.5270144226192,127.026458030391,카카오,,,,,,,,,,,,,,,,,,,,,,,,,,,,2026-06-28 01:08:07,압구정428 공영노외주차장,91.7%,3.0,3,https://place.map.kakao.com/20346733,https://place.map.kakao.com/20346733#review
포이초교 공영주차장(구),강남구 개포동 1273-0,1033754,NW,노외 주차장,1,시간제 주차장,02-3423-6403,0,2400,0.0,2400.0,0.0,2400.0,189,유료,200.0,5.0,200.0,5.0,,120000.0,37.4755999893596,127.052323681063,카카오,,,,,,,,,,,,,,,,,,,,,,,,,,,,2026-06-28 01:08:08,포이초교 공영주차장 전기차충전소,75.0%,평가 없음,0,https://place.map.kakao.com/1689126460,
구로디지털단지역 공영주차장(시),구로구 구로동 810-3,1037932,NW,노외 주차장,1,시간제 주차장,02-2290-6034,0,2400,0.0,2400.0,0.0,2400.0,91,유료,320.0,5.0,320.0,5.0,,168000.0,37.48543179,126.90124331,서울API,1.0,현재~20분이내 연계데이터 존재(현재 주차대수 표현),22.0,2026-06-28 01:16:53,Y,유료,N,야간 미개방,0.0,2400.0,N,무료,168000.0,,320.0,5.0,320.0,5.0,0.0,0.0,0.0,0.0,0.0,*,*,N,*,2026-06-28 01:08:08,,,,,,
논현로22길(구),강남구 개포동 1266-0,1040225,NW,노외 주차장,1,시간제 주차장,02-3423-6403,0,2400,0.0,2400.0,0.0,2400.0,86,유료,200.0,5.0,200.0,5.0,,120000.0,37.481445220709,127.048024743784,카카오,,,,,,,,,,,,,,,,,,,,,,,,,,,,2026-06-28 01:08:09,논현로22길 공영주차장 1 전기차충전소,66.7%,평가 없음,0,https://place.map.kakao.com/211239231,
신당동 공영주차장(구),중구 신당동 300-6,1041839,NW,노외 주차장,1,시간제 주차장,02-2280-8360,0,2400,0.0,2400.0,0.0,2400.0,75,유료,250.0,5.0,250.0,5.0,,175000.0,37.5620652845073,127.01445544028,카카오,,,,,,,,,,,,,,,,,,,,,,,,,,,,2026-06-28 01:08:09,신당동 공영주차장,100.0%,5.0,1,https://place.map.kakao.com/20515675,https://place.map.kakao.com/20515675#review
남산동 공영주차장(구),중구 남산동2가 30-4,1041840,NW,노외 주차장,1,시간제 주차장,02-2280-8360,0,2400,0.0,2400.0,0.0,2400.0,48,유료,300.0,5.0,300.0,5.0,,240000.0,37.5592456159986,126.9855535929,카카오,,,,,,,,,,,,,,,,,,,,,,,,,,,,2026-06-28 01:08:10,남산동공영주차장,100.0%,3.4,7,https://place.map.kakao.com/20514233,https://place.map.kakao.com/20514233#review
역삼1문화센터 공영주차장(구),강남구 역삼동 829-20,1042402,NW,노외 주차장,1,시간제 주차장,02-3423-6403,0,2400,0.0,2400.0,0.0,2400.0,115,유료,400.0,5.0,400.0,5.0,,280000.0,37.4953548359191,127.033249568198,카카오,,,,,,,,,,,,,,,,,,,,,,,,,,,,2026-06-28 01:08:11,역삼1동문화센터 공영주차장,96.0%,평가 없음,0,https://place.map.kakao.com/17766850,
언북초교 공영주차장(구),강남구 청담동 27-0,1042405,NW,노외 주차장,1,시간제 주차장,02-3423-6403,0,2400,0.0,2400.0,0.0,2400.0,220,유료,300.0,5.0,300.0,5.0,,180000.0,37.5199695812957,127.045626398748,카카오,,,,,,,,,,,,,,,,,,,,,,,,,,,,2026-06-28 01:08:11,쏘카존 [배달호출존] 언북초등학교 공영주차장,60.0%,평가 없음,0,https://place.map.kakao.com/352113685,
삼성1문화센터 공영주차장(구),강남구 삼성동 161-2,1042406,NW,노외 주차장,1,시간제 주차장,02-3423-6403,0,2400,0.0,2400.0,0.0,2400.0,68,유료,400.0,5.0,400.0,5.0,,280000.0,37.5143443033382,127.062629702701,카카오,,,,,,,,,,,,,,,,,,,,,,,,,,,,2026-06-28 01:08:12,삼성1동주민센터 공영주차장,80.0%,평가 없음,0,https://place.map.kakao.com/510616976,
논현초교 공영주차장(구),강남구 논현동 168-0,1042410,NW,노외 주차장,1,시간제 주차장,02-3423-6403,0,2400,0.0,2400.0,0.0,2400.0,186,유료,300.0,5.0,300.0,5.0,,180000.0,37.5082170904646,127.026316463846,카카오,,,,,,,,,,,,,,,,,,,,,,,,,,,,2026-06-28 01:08:13,논현초교 공영주차장,100.0%,1.0,5,https://place.map.kakao.com/26821248,https://place.map.kakao.com/26821248#review
언주초 공영주차장(구),강남구 도곡동 922-0,1042421,NW,노외 주차장,1,시간제 주차장,02-3423-6403,0,2400,0.0,2400.0,0.0,2400.0,203,유료,200.0,5.0,200.0,5.0,,120000.0,37.4865474901998,127.037172110144,카카오,,,,,,,,,,,,,,,,,,,,,,,,,,,,2026-06-28 01:08:14,언주초등학교 공영주차장,84.2%,5.0,1,https://place.map.kakao.com/12412287,https://place.map.kakao.com/12412287#review
구파발역 공영주차장(시),은평구 진관동 70-1,1051043,NW,노외 주차장,1,시간제 주차장,02-2290-6088,0,2400,0.0,2400.0,0.0,2400.0,399,유료,240.0,5.0,240.0,5.0,,109000.0,37.638209,126.918987,서울API,1.0,현재~20분이내 연계데이터 존재(현재 주차대수 표현),60.0,2026-06-28 01:16:53,Y,유료,N,야간 미개방,0.0,2400.0,N,무료,109000.0,,240.0,5.0,240.0,5.0,0.0,0.0,0.0,0.0,0.0,*,*,N,*,2026-06-28 01:08:14,,,,,,
살곶이(평면) 공영주차장(구),성동구 사근동 104-0,1052723,NW,노외 주차장,1,시간제 주차장,02-2204-7970,0,2400,0.0,2400.0,0.0,2400.0,203,유료,50.0,5.0,,,,,37.5538739335068,127.048618251308,카카오,,,,,,,,,,,,,,,,,,,,,,,,,,,,2026-06-28 01:08:14,살곶이체육공원 공영주차장,80.0%,3.9,8,https://place.map.kakao.com/183069213,https://place.map.kakao.com/183069213#review
마장축산물시장(건물) 공영주차장(구),성동구 마장동 525-1,1052741,NW,노외 주차장,1,시간제 주차장,02-2204-7970,0,2400,0.0,2400.0,0.0,2400.0,107,유료,250.0,5.0,,,,30000.0,37.5714774409112,127.039917891441,카카오,,,,,,,,,,,,,,,,,,,,,,,,,,,,2026-06-28 01:08:15,마장축산물시장 공영주차장,100.0%,평가 없음,0,https://place.map.kakao.com/25612945,
볏골공원 지하공영주차장(구),강서구 화곡동 98-99,1053712,NW,노외 주차장,3,시간제 + 거주자 주차장,02-2065-1575,0,2400,0.0,2400.0,0.0,2400.0,219,유료,100.0,5.0,100.0,5.0,,60000.0,37.5414780944294,126.844388675502,카카오,,,,,,,,,,,,,,,,,,,,,,,,,,,,2026-06-28 01:08:16,볏골공원공영주차장,90.0%,3.5,4,https://place.map.kakao.com/27478544,https://place.map.kakao.com/27478544#review
잠원동 방음언덕형 공영주차장(구),서초구 잠원동 10-33,1140909,NW,노외 주차장,1,시간제 주차장,070-7119-3701,0,2400,0.0,2400.0,0.0,2400.0,92,유료,150.0,5.0,150.0,5.0,,120000.0,37.5161853965859,127.016300864401,카카오,,,,,,,,,,,,,,,,,,,,,,,,,,,,2026-06-28 01:08:16,잠원동방음언덕형 공영주차창,92.3%,2.4,9,https://place.map.kakao.com/19305552,https://place.map.kakao.com/19305552#review
반포서래 공영주차장(구),서초구 반포동 95-13,1140911,NW,노외 주차장,1,시간제 주차장,02-1588-5783,0,2400,0.0,2400.0,0.0,2400.0,7,유료,150.0,5.0,150.0,5.0,,,37.4981469389514,126.997817876589,카카오,,,,,,,,,,,,,,,,,,,,,,,,,,,,2026-06-28 01:08:17,반포서래공영주차장,100.0%,5.0,1,https://place.map.kakao.com/17766755,https://place.map.kakao.com/17766755#review
봉천복개3 공영주차장(시),관악구 신림동 1467-3,1163833,NS,노상 주차장,1,시간제 주차장,,900,1900,900.0,1500.0,0.0,0.0,1,유료,220.0,5.0,220.0,5.0,,162000.0,37.48806796,126.93139234,서울API,1.0,현재~20분이내 연계데이터 존재(현재 주차대수 표현),30.0,2026-06-28 01:16:22,Y,유료,N,야간 미개방,0.0,0.0,Y,유료,162000.0,1162010200001.0,220.0,5.0,220.0,5.0,0.0,0.0,0.0,0.0,0.0,*,*,N,*,2026-06-28 01:08:17,,,,,,
독산동 금천교 공영주차장(시),금천구 독산동 1081-4,1167546,NS,노상 주차장,1,시간제 주차장,,900,1900,900.0,1500.0,0.0,0.0,1,유료,400.0,5.0,400.0,5.0,,160000.0,37.46654581,126.89009797,서울API,1.0,현재~20분이내 연계데이터 존재(현재 주차대수 표현),10.0,2026-06-28 01:16:59,Y,유료,N,야간 미개방,0.0,0.0,Y,유료,160000.0,1154510200186.0,400.0,5.0,400.0,5.0,0.0,0.0,0.0,0.0,0.0,*,*,N,*,2026-06-28 01:08:17,,,,,,
신답고가 주변(구),동대문구 답십리동 530-6,1189778,NS,노상 주차장,1,시간제 주차장,,900,1900,900.0,1500.0,0.0,0.0,1,유료,500.0,10.0,500.0,10.0,36000.0,120000.0,37.5692227298486,127.051064391463,카카오,,,,,,,,,,,,,,,,,,,,,,,,,,,,2026-06-28 01:08:18,신답고가 노상공영주차장,70.0%,평가 없음,0,https://place.map.kakao.com/1031031743,
동대문소방서노상(구),동대문구 장안동 434-0,1193467,NS,노상 주차장,1,시간제 주차장,02-456-2591,900,1900,900.0,1500.0,0.0,0.0,1,유료,500.0,10.0,500.0,10.0,36000.0,120000.0,37.5640227755338,127.066837316401,카카오,,,,,,,,,,,,,,,,,,,,,,,,,,,,2026-06-28 01:08:18,동대문소방서 노상공영주차장,91.7%,평가 없음,0,https://place.map.kakao.com/1515829123,
여의도공원앞1 노상주차장(구),영등포구 여의도동 2-11,119824,NS,노상 주차장,1,시간제 주차장,02-2650-1436,900,1900,900.0,1500.0,0.0,0.0,1,유료,500.0,5.0,1000.0,10.0,20000.0,200000.0,37.5256978974636,126.924240629895,카카오,,,,,,,,,,,,,,,,,,,,,,,,,,,,2026-06-28 01:08:19,,,조건 불일치 제외,,,
청계2(북2) 공영주차장(시),종로구 관수동 91-4,1208601,NS,노상 주차장,1,시간제 주차장,,900,1900,900.0,1500.0,0.0,0.0,1,유료,750.0,5.0,750.0,5.0,,,37.56878199,126.99591057,서울API,1.0,현재~20분이내 연계데이터 존재(현재 주차대수 표현),4.0,2026-06-28 01:16:57,Y,유료,N,야간 미개방,0.0,0.0,Y,유료,0.0,1111015500003.0,750.0,5.0,750.0,5.0,0.0,0.0,0.0,0.0,0.0,*,*,N,*,2026-06-28 01:08:19,,,,,,
청계3(북1) 공영주차장(시),종로구 예지동 140-1,1210657,NS,노상 주차장,1,시간제 주차장,,900,1900,900.0,1500.0,0.0,0.0,1,유료,750.0,5.0,750.0,5.0,,,37.56967214,127.00112596,서울API,1.0,현재~20분이내 연계데이터 존재(현재 주차대수 표현),2.0,2026-06-28 01:16:57,Y,유료,N,야간 미개방,0.0,0.0,Y,유료,0.0,1111015800003.0,750.0,5.0,750.0,5.0,0.0,0.0,0.0,0.0,0.0,*,*,N,*,2026-06-28 01:08:19,,,,,,
가마산고가밑 공영주차장(시),구로구 구로동 414-13,1234305,NS,노상 주차장,1,시간제 주차장,,900,1900,900.0,1500.0,0.0,0.0,1,유료,120.0,5.0,120.0,5.0,,,37.49279709,126.88255837,서울API,1.0,현재~20분이내 연계데이터 존재(현재 주차대수 표현),11.0,2026-06-28 01:16:59,Y,유료,N,야간 미개방,0.0,0.0,Y,유료,0.0,1153010200072.0,120.0,5.0,120.0,5.0,0.0,0.0,0.0,0.0,0.0,*,*,N,*,2026-06-28 01:08:19,,,,,,
청계3(남) 공영주차장(시),중구 주교동 51-3,1235522,NS,노상 주차장,1,시간제 주차장,,900,1900,900.0,1500.0,0.0,0.0,1,유료,750.0,5.0,750.0,5.0,,,37.56882563,126.99856505,서울API,0.0,미연계중,,,Y,유료,N,야간 미개방,0.0,0.0,Y,유료,0.0,1114015200211.0,750.0,5.0,750.0,5.0,0.0,0.0,0.0,0.0,0.0,*,*,N,*,2026-06-28 01:08:19,,,,,,
청계6(청평화) 공영주차장(시),중구 신당동 217-91 0,1235665,NS,노상 주차장,1,시간제 주차장,02-2252-8036,0,2400,0.0,2400.0,0.0,0.0,1,유료,450.0,5.0,450.0,5.0,,,37.56959934,127.01508269,서울API,1.0,현재~20분이내 연계데이터 존재(현재 주차대수 표현),3.0,2026-06-28 01:16:24,Y,유료,N,야간 미개방,0.0,0.0,Y,유료,0.0,1114016200217.0,450.0,5.0,450.0,5.0,0.0,0.0,0.0,0.0,0.0,*,*,N,*,2026-06-28 01:08:19,,,,,,
남대문 화물 공영주차장(시),중구 남대문로4가 24-1,1236612,NS,노상 주차장,1,시간제 주차장,,900,1900,900.0,1900.0,900.0,1900.0,1,유료,400.0,5.0,400.0,5.0,,,37.56069448,126.97708039,서울API,0.0,미연계중,,,Y,유료,N,야간 미개방,900.0,1900.0,N,무료,,1114011700001.0,400.0,5.0,400.0,5.0,0.0,0.0,0.0,0.0,0.0,*,*,N,*,2026-06-28 01:08:19,,,,,,
신설동 공영주차장(시),동대문구 신설동 114-29,1247636,NW,노외 주차장,1,시간제 주차장,02-2232-6096,900,1900,900.0,1900.0,900.0,1900.0,79,유료,360.0,5.0,360.0,5.0,,84000.0,37.57252061,127.02425684,서울API,1.0,현재~20분이내 연계데이터 존재(현재 주차대수 표현),37.0,2026-06-28 01:16:53,Y,유료,N,야간 미개방,900.0,1900.0,N,무료,84000.0,,360.0,5.0,360.0,5.0,0.0,0.0,0.0,0.0,0.0,*,*,N,*,2026-06-28 01:08:19,,,,,,
천호2동노외주차장(구),강동구 천호동 457-7,1247641,NW,노외 주차장,1,시간제 주차장,,900,1800,900.0,1800.0,,,13,유료,250.0,5.0,250.0,5.0,,,37.5403385944217,127.1230043201,카카오,,,,,,,,,,,,,,,,,,,,,,,,,,,,2026-06-28 01:08:20,천호2동 노외공영주차장,90.0%,평가 없음,0,https://place.map.kakao.com/20587606,
구의3동 공영주차장(구),광진구 구의동 219-15,1247659,NW,노외 주차장,1,시간제 주차장,02-2049-4596,0,2400,0.0,0.0,0.0,0.0,159,유료,150.0,5.0,150.0,5.0,,,37.5391154662864,127.091360978592,카카오,,,,,,,,,,,,,,,,,,,,,,,,,,,,2026-06-28 01:08:21,구의3동 공영주차장,100.0%,평가 없음,0,https://place.map.kakao.com/20513710,
광진광장 공영주차장(구),광진구 군자동 374-9,1247661,NW,노외 주차장,1,시간제 주차장,02-2049-4596,0,2400,0.0,2400.0,0.0,2400.0,33,유료,250.0,5.0,,,100000.0,,37.5476336466758,127.073774192613,카카오,,,,,,,,,,,,,,,,,,,,,,,,,,,,2026-06-28 01:08:21,광진광장 공영주차장,100.0%,4.0,2,https://place.map.kakao.com/11475808,https://place.map.kakao.com/11475808#review
암사1동 주차장(구),강동구 암사동 59-2,1247675,NW,노외 주차장,1,시간제 주차장,02-428-2431,0,2400,0.0,2400.0,0.0,2400.0,114,유료,150.0,5.0,150.0,5.0,,80000.0,,,,,,,,,,,,,,,,,,,,,,,,,,,,,,,2026-06-28 01:08:22,,,,,,
망원1-2 공영주차장(구),마포구 망원동 403-2,1247678,NW,노외 주차장,1,시간제 주차장,02-300-5046,0,2400,0.0,2400.0,0.0,2400.0,148,유료,300.0,5.0,300.0,5.0,,140000.0,37.5555820062404,126.905860657206,카카오,,,,,,,,,,,,,,,,,,,,,,,,,,,,2026-06-28 01:08:23,망원1-2공영주차장,100.0%,2.6,22,https://place.map.kakao.com/20540979,https://place.map.kakao.com/20540979#review
영등포동제3공영(구),영등포구 영등포동4가 442-0,1254863,NW,노외 주차장,1,시간제 주차장,02-2677-1401,0,2400,0.0,2400.0,0.0,2400.0,172,유료,250.0,5.0,250.0,5.0,,120000.0,37.5170754549268,126.903340879819,카카오,,,,,,,,,,,,,,,,,,,,,,,,,,,,2026-06-28 01:08:23,영등포동 제3공영주차장,100.0%,4.0,4,https://place.map.kakao.com/1004087068,https://place.map.kakao.com/1004087068#review
청파동1마을공원공영주차장(구),용산구 청파동3가 118-102,1268780,NW,노외 주차장,1,시간제 주차장,02-749-5314,0,2400,0.0,2400.0,0.0,2400.0,105,유료,150.0,5.0,150.0,5.0,,98000.0,37.5429311541511,126.96845718281,카카오,,,,,,,,,,,,,,,,,,,,,,,,,,,,2026-06-28 01:08:24,청파동1마을공원 공영주차장,100.0%,4.0,6,https://place.map.kakao.com/26564840,https://place.map.kakao.com/26564840#review
영등포구청역 공영주차장(시),영등포구 당산동3가 370-3,1277144,NW,노외 주차장,1,시간제 주차장,02-2290-6089,500,100,500.0,100.0,500.0,100.0,137,유료,400.0,5.0,400.0,5.0,,134000.0,37.52432737,126.89548892,서울API,1.0,현재~20분이내 연계데이터 존재(현재 주차대수 표현),48.0,2026-06-28 01:16:53,Y,유료,N,야간 미개방,500.0,100.0,N,무료,134000.0,,400.0,5.0,400.0,5.0,0.0,0.0,0.0,0.0,0.0,*,*,N,*,2026-06-28 01:08:24,,,,,,
잠실역 공영주차장(시),송파구 신천동 27-0,1277145,NW,노외 주차장,1,시간제 주차장,02-2290-6402,500,100,500.0,100.0,500.0,100.0,357,유료,440.0,5.0,440.0,5.0,,275000.0,37.51427683,127.10341414,서울API,1.0,현재~20분이내 연계데이터 존재(현재 주차대수 표현),46.0,2026-06-28 01:16:53,Y,유료,N,야간 미개방,500.0,100.0,N,무료,275000.0,,440.0,5.0,440.0,5.0,0.0,0.0,0.0,0.0,0.0,*,*,N,*,2026-06-28 01:08:24,,,,,,
장안2동 공영주차장(시),동대문구 장안동 286-9,1277146,NW,노외 주차장,1,시간제 주차장,02-2290-6417,0,2400,0.0,2400.0,0.0,2400.0,80,유료,130.0,5.0,130.0,5.0,,84000.0,37.5782752,127.07061896,서울API,1.0,현재~20분이내 연계데이터 존재(현재 주차대수 표현),60.0,2026-06-28 01:16:54,Y,유료,N,야간 미개방,0.0,2400.0,N,무료,84000.0,,130.0,5.0,130.0,5.0,0.0,0.0,0.0,0.0,0.0,*,*,N,*,2026-06-28 01:08:24,,,,,,
당산노외 공영주차장(시),영등포구 당산동3가 2-1,1277160,NW,노외 주차장,1,시간제 주차장,02-1533-2315,800,2100,800.0,2100.0,800.0,2100.0,236,유료,400.0,5.0,400.0,5.0,,168000.0,37.52625065,126.89945376,서울API,1.0,현재~20분이내 연계데이터 존재(현재 주차대수 표현),39.0,2026-06-28 01:16:54,Y,유료,N,야간 미개방,800.0,2100.0,N,무료,168000.0,,400.0,5.0,400.0,5.0,0.0,0.0,0.0,0.0,0.0,*,*,N,*,2026-06-28 01:08:24,,,,,,
명일파출소 공영주차장(시),강동구 명일동 47-9,1277163,NW,노외 주차장,1,시간제 주차장,,900,2000,900.0,1500.0,0.0,0.0,12,유료,220.0,5.0,220.0,5.0,,162000.0,37.55361065,127.15591212,서울API,1.0,현재~20분이내 연계데이터 존재(현재 주차대수 표현),5.0,2026-06-28 01:16:23,Y,유료,N,야간 미개방,0.0,0.0,Y,유료,162000.0,,220.0,5.0,220.0,5.0,0.0,0.0,0.0,0.0,0.0,*,*,N,*,2026-06-28 01:08:24,,,,,,
도곡로21길 7 공영주차장(구),강남구 역삼동 795-25,1364466,NW,노외 주차장,1,시간제 주차장,02-2176-0920,0,2400,0.0,2400.0,0.0,2400.0,75,유료,400.0,5.0,400.0,5.0,,280000.0,37.4924961418419,127.038795243893,카카오,,,,,,,,,,,,,,,,,,,,,,,,,,,,2026-06-28 01:08:25,도곡로21길7 공영노외주차장,92.3%,평가 없음,0,https://place.map.kakao.com/20519196,
탄천제2호 공영주차장(구),강남구 일원동 4-49,1364468,NW,노외 주차장,1,시간제 주차장,02-2176-0931,0,2400,0.0,2400.0,0.0,2400.0,322,유료,100.0,5.0,100.0,5.0,,70000.0,37.494122872449,127.087436634946,카카오,,,,,,,,,,,,,,,,,,,,,,,,,,,,2026-06-28 01:08:25,탄천제2호 공영주차장,100.0%,2.0,1,https://place.map.kakao.com/17766920,https://place.map.kakao.com/17766920#review
영희초교 공영주차장(구),강남구 일원동 617-0,1364472,NW,노외 주차장,1,시간제 주차장,02-3423-6403,0,2400,0.0,2400.0,0.0,2400.0,185,유료,100.0,5.0,100.0,5.0,,70000.0,37.4919415183164,127.081276460173,카카오,,,,,,,,,,,,,,,,,,,,,,,,,,,,2026-06-28 01:08:26,영희초등학교 공영주차장,90.0%,3.0,2,https://place.map.kakao.com/12413204,https://place.map.kakao.com/12413204#review
개봉1동 노외주차장(구),구로구 개봉동 134-8,1366395,NW,노외 주차장,1,시간제 주차장,,0,2400,0.0,2400.0,0.0,2400.0,134,유료,100.0,5.0,100.0,5.0,,75000.0,37.4999921852315,126.851037166119,카카오,,,,,,,,,,,,,,,,,,,,,,,,,,,,2026-06-28 01:08:26,개봉1동노외 공영주차장,90.0%,평가 없음,0,https://place.map.kakao.com/20512958,
송정동(건물) 공영주차장(구),성동구 송정동 68-57,1366504,NW,노외 주차장,1,시간제 주차장,02-2204-7970,0,2400,0.0,2400.0,0.0,2400.0,120,유료,150.0,5.0,,,,30000.0,37.549962191668,127.068066179581,카카오,,,,,,,,,,,,,,,,,,,,,,,,,,,,2026-06-28 01:08:27,송정동 공영주차장,100.0%,평가 없음,0,https://place.map.kakao.com/7970747,
동작대교 공영주차장(시),용산구 용산동6가 69-11,1366527,NW,노외 주차장,1,시간제 주차장,,800,2200,800.0,2200.0,800.0,2200.0,88,유료,120.0,5.0,120.0,5.0,,80000.0,37.518577,126.983287,서울API,1.0,현재~20분이내 연계데이터 존재(현재 주차대수 표현),52.0,2026-06-28 01:16:54,Y,유료,N,야간 미개방,800.0,2200.0,N,무료,80000.0,,120.0,5.0,120.0,5.0,0.0,0.0,0.0,0.0,0.0,*,*,N,*,2026-06-28 01:08:27,,,,,,
개화역 공영주차장(시),강서구 개화동 664-0,1366576,NW,노외 주차장,1,시간제 주차장,02-2290-6312,0,2400,0.0,2400.0,0.0,2400.0,483,유료,290.0,5.0,290.0,5.0,,109000.0,37.57798421,126.79821222,서울API,1.0,현재~20분이내 연계데이터 존재(현재 주차대수 표현),363.0,2026-06-28 01:16:54,Y,유료,N,야간 미개방,0.0,2400.0,N,무료,109000.0,,290.0,5.0,290.0,5.0,0.0,0.0,0.0,0.0,0.0,*,*,N,*,2026-06-28 01:08:27,,,,,,
신대방역 공영주차장(시),관악구 신림동 498-0,1366590,NW,노외 주차장,1,시간제 주차장,02-2290-6144,0,2400,0.0,2400.0,0.0,2400.0,60,유료,360.0,5.0,360.0,5.0,,168000.0,37.48830327,126.91452278,서울API,1.0,현재~20분이내 연계데이터 존재(현재 주차대수 표현),46.0,2026-06-28 01:16:54,Y,유료,N,야간 미개방,0.0,2400.0,N,무료,168000.0,,360.0,5.0,360.0,5.0,0.0,0.0,0.0,0.0,0.0,*,*,N,*,2026-06-28 01:08:27,,,,,,
구로디지털단지역(상) 공영주차장(시),관악구 신림동 1677-5,1366593,NW,노외 주차장,1,시간제 주차장,,800,2100,800.0,2100.0,800.0,2100.0,31,유료,360.0,5.0,360.0,5.0,,168000.0,37.48481135,126.90323392,서울API,1.0,현재~20분이내 연계데이터 존재(현재 주차대수 표현),14.0,2026-06-28 01:16:54,Y,유료,N,야간 미개방,800.0,2100.0,N,무료,168000.0,,360.0,5.0,360.0,5.0,0.0,0.0,0.0,0.0,0.0,*,*,N,*,2026-06-28 01:08:27,,,,,,
일원터널 공영주차장(시),강남구 일원동 722-1,1366602,NW,노외 주차장,1,시간제 주차장,02-2290-6449,0,2400,0.0,2400.0,0.0,2400.0,11,유료,130.0,5.0,130.0,5.0,,84000.0,37.48285728,127.07937197,서울API,0.0,미연계중,,,Y,유료,N,야간 미개방,0.0,2400.0,N,무료,84000.0,,130.0,5.0,130.0,5.0,0.0,0.0,0.0,0.0,0.0,*,*,N,*,2026-06-28 01:08:27,,,,,,
창동역(서) 공영주차장(시),도봉구 창동 330-0,1366624,NW,노외 주차장,1,시간제 주차장,,0,2400,0.0,2400.0,0.0,2400.0,106,유료,320.0,5.0,320.0,5.0,,168000.0,37.65237042,127.04567683,서울API,1.0,현재~20분이내 연계데이터 존재(현재 주차대수 표현),11.0,2026-06-28 01:16:54,Y,유료,N,야간 미개방,0.0,2400.0,N,무료,168000.0,,320.0,5.0,320.0,5.0,0.0,0.0,0.0,0.0,0.0,*,*,N,*,2026-06-28 01:08:27,,,,,,
청암공영주차장(무인)(구),강북구 미아동 791-1694,1366789,NW,노외 주차장,1,시간제 주차장,02-944-3025,0,2400,0.0,2400.0,0.0,2400.0,47,유료,150.0,5.0,150.0,5.0,,60000.0,37.6247149991851,127.015416609128,카카오,,,,,,,,,,,,,,,,,,,,,,,,,,,,2026-06-28 01:08:28,청암공영주차장,100.0%,평가 없음,0,https://place.map.kakao.com/20587695,
은혜공영주차장(무인)(구),강북구 미아동 791-1049,1366790,NW,노외 주차장,1,시간제 주차장,02-944-3025,0,2400,0.0,2400.0,0.0,2400.0,20,유료,150.0,5.0,150.0,5.0,10000.0,60000.0,37.6279630227304,127.016975830522,카카오,,,,,,,,,,,,,,,,,,,,,,,,,,,,2026-06-28 01:08:28,은혜공영주차장,100.0%,1.0,1,https://place.map.kakao.com/20562875,https://place.map.kakao.com/20562875#review
수유일공원 공영주차장(구),강북구 수유동 605-407,1366792,NW,노외 주차장,1,시간제 주차장,02-944-3042,0,2400,0.0,2400.0,0.0,2400.0,90,유료,200.0,5.0,200.0,5.0,10000.0,100000.0,37.6305911347064,127.017422893187,카카오,,,,,,,,,,,,,,,,,,,,,,,,,,,,2026-06-28 01:08:29,수유일공원 공영주차장,100.0%,1.0,1,https://place.map.kakao.com/1704553327,https://place.map.kakao.com/1704553327#review
번2동 공영주차장(무인)(구),강북구 번동 148-140,1366793,NW,노외 주차장,1,시간제 주차장,02-944-3025,0,2400,0.0,2400.0,0.0,2400.0,20,유료,150.0,5.0,150.0,5.0,,60000.0,37.6268200395715,127.036732880812,카카오,,,,,,,,,,,,,,,,,,,,,,,,,,,,2026-06-28 01:08:30,번2동 노외공영주차장,88.9%,평가 없음,0,https://place.map.kakao.com/23886593,
미아동 공영주차장(구),강북구 미아동 222-100,1366794,NW,노외 주차장,1,시간제 주차장,02-944-3048,0,2400,0.0,2400.0,0.0,2400.0,155,유료,150.0,5.0,150.0,5.0,10000.0,80000.0,37.6285611044497,127.02234223567,카카오,,,,,,,,,,,,,,,,,,,,,,,,,,,,2026-06-28 01:08:30,미아동공영주차장,100.0%,평가 없음,0,https://place.map.kakao.com/17255159,
석계역 공영주차장(시),노원구 월계동 50-9,1366903,NW,노외 주차장,1,시간제 주차장,,0,2400,0.0,2400.0,0.0,2400.0,70,유료,280.0,5.0,280.0,5.0,,168000.0,37.615292,127.062997,서울API,1.0,현재~20분이내 연계데이터 존재(현재 주차대수 표현),41.0,2026-06-28 01:16:54,Y,유료,N,야간 미개방,0.0,2400.0,N,무료,168000.0,,280.0,5.0,280.0,5.0,0.0,0.0,0.0,0.0,0.0,*,*,N,*,2026-06-28 01:08:30,,,,,,
동구로 공영주차장(시),구로구 구로동 94-1,1367120,NW,노외 주차장,1,시간제 주차장,02-3405-4086,0,2400,0.0,2400.0,0.0,2400.0,70,유료,320.0,5.0,320.0,5.0,,168000.0,37.49510602,126.89186155,서울API,1.0,현재~20분이내 연계데이터 존재(현재 주차대수 표현),34.0,2026-06-28 01:16:54,Y,유료,N,야간 미개방,0.0,2400.0,N,무료,168000.0,,320.0,5.0,320.0,5.0,0.0,0.0,0.0,0.0,0.0,*,*,N,*,2026-06-28 01:08:30,,,,,,
가산동 금천교 공영주차장(시),금천구 가산동 691-3,1367773,NS,노상 주차장,1,시간제 주차장,,900,1900,900.0,1500.0,0.0,0.0,1,유료,200.0,5.0,200.0,5.0,,140000.0,37.4659676,126.8873338,서울API,1.0,현재~20분이내 연계데이터 존재(현재 주차대수 표현),13.0,2026-06-28 01:16:59,Y,유료,N,야간 미개방,0.0,0.0,Y,유료,140000.0,1154510100104.0,200.0,5.0,200.0,5.0,0.0,0.0,0.0,0.0,0.0,*,*,N,*,2026-06-28 01:08:30,,,,,,
당산고가밑 공영주차장(시),영등포구 당산동5가 9-15,1367792,NS,노상 주차장,1,시간제 주차장,,900,1900,900.0,1500.0,0.0,0.0,1,유료,450.0,5.0,450.0,5.0,,,37.53226891,126.90058559,서울API,1.0,현재~20분이내 연계데이터 존재(현재 주차대수 표현),0.0,2026-06-28 01:16:21,Y,유료,N,야간 미개방,0.0,0.0,Y,유료,,1156011500013.0,450.0,5.0,450.0,5.0,0.0,0.0,0.0,0.0,0.0,*,*,N,*,2026-06-28 01:08:30,,,,,,
을지로 공영주차장(시),중구 을지로3가 282-8,1367804,NS,노상 주차장,1,시간제 주차장,02-2274-2009,900,1900,900.0,1500.0,0.0,0.0,1,유료,810.0,5.0,810.0,5.0,,,37.56689861,127.00145145,서울API,1.0,현재~20분이내 연계데이터 존재(현재 주차대수 표현),47.0,2026-06-28 01:16:54,Y,유료,N,야간 미개방,0.0,0.0,Y,유료,,1114015500020.0,810.0,5.0,810.0,5.0,0.0,0.0,0.0,0.0,0.0,*,*,N,*,2026-06-28 01:08:30,,,,,,
신길5동 공영(구),영등포구 신길동 400-1,1368749,NW,노외 주차장,1,시간제 주차장,02-2677-1401,0,2400,0.0,2400.0,0.0,2400.0,26,유료,150.0,5.0,150.0,5.0,,140000.0,37.5022220506456,126.904798346992,카카오,,,,,,,,,,,,,,,,,,,,,,,,,,,,2026-06-28 01:08:31,신길5동 공영주차장,100.0%,1.0,1,https://place.map.kakao.com/26536557,https://place.map.kakao.com/26536557#review
남산공원 소월로 관광버스전용 주차장(시),중구 남대문로5가 450-0,1368955,NS,노상 주차장,4,버스전용 주차장,02-2290-6449,0,0,0.0,0.0,0.0,0.0,1,무료,,,,,,,37.55426386,126.97857315,서울API,1.0,현재~20분이내 연계데이터 존재(현재 주차대수 표현),6.0,2026-06-28 01:16:25,N,무료,N,야간 미개방,0.0,0.0,Y,유료,0.0,1114011800207.0,0.0,0.0,0.0,0.0,0.0,0.0,0.0,0.0,0.0,*,*,N,*,2026-06-28 01:08:31,,,,,,
탑골공원 관광버스전용 주차장(시),종로구 종로2가 38-4,1369476,NS,노상 주차장,4,버스전용 주차장,02)2290-6449,0,0,0.0,0.0,0.0,0.0,1,무료,,,,,,,37.57134087,126.98776281,서울API,1.0,현재~20분이내 연계데이터 존재(현재 주차대수 표현),2.0,2026-06-28 01:16:26,N,무료,N,야간 미개방,0.0,0.0,Y,유료,0.0,1111013800003.0,0.0,0.0,0.0,0.0,0.0,0.0,0.0,0.0,0.0,*,*,N,*,2026-06-28 01:08:31,,,,,,
강일동 주차장(구),강동구 강일동 665-4,1370100,NW,노외 주차장,1,시간제 주차장,,0,2400,0.0,2400.0,0.0,2400.0,90,유료,150.0,5.0,150.0,5.0,,80000.0,37.5661440479532,127.172540520573,카카오,,,,,,,,,,,,,,,,,,,,,,,,,,,,2026-06-28 01:08:32,강일동공영주차장,85.7%,평가 없음,0,https://place.map.kakao.com/20512929,
이경시장 공영주차장(구),동대문구 이문동 86-52,1370269,NS,노상 주차장,1,시간제 주차장,,900,1900,900.0,1500.0,0.0,0.0,1,유료,500.0,10.0,500.0,10.0,36000.0,120000.0,37.5954805528473,127.065171802676,카카오,,,,,,,,,,,,,,,,,,,,,,,,,,,,2026-06-28 01:08:32,이경시장옆 공영주차장,94.7%,평가 없음,0,https://place.map.kakao.com/20576606,
번동 햇살 주차장(구),강북구 번동 148-380,1370637,NW,노외 주차장,1,시간제 주차장,02-944-3044,0,2400,0.0,2400.0,0.0,2400.0,187,유료,150.0,5.0,150.0,5.0,10000.0,60000.0,37.6250906839284,127.033403330592,카카오,,,,,,,,,,,,,,,,,,,,,,,,,,,,2026-06-28 01:08:33,번동햇살 공영 주차장,87.5%,평가 없음,0,https://place.map.kakao.com/24062513,
봉수대공영주차장(구),중랑구 신내동 12-2,1370857,NW,노외 주차장,1,시간제 주차장,02-438-8271,800,1700,0.0,0.0,0.0,0.0,31,유료,150.0,5.0,150.0,5.0,3000.0,,,,,,,,,,,,,,,,,,,,,,,,,,,,,,,,2026-06-28 01:08:34,,,,,,
목동타운홀(구),양천구 목동 905-21,1371690,NW,노외 주차장,1,시간제 주차장,02-2644-1398,900,1900,,,,,23,유료,150.0,5.0,150.0,5.0,9000.0,100000.0,37.5329215132555,126.876861912557,카카오,,,,,,,,,,,,,,,,,,,,,,,,,,,,2026-06-28 01:08:34,목동타운홀공영주차장,88.9%,평가 없음,0,https://place.map.kakao.com/268477949,
마천동3(건축물식)(구),송파구 마천동 128-4,1372128,NW,노외 주차장,1,시간제 주차장,02-431-0166,0,2400,0.0,2400.0,0.0,2400.0,47,유료,100.0,5.0,100.0,5.0,,70000.0,37.4961373052066,127.149831688449,카카오,,,,,,,,,,,,,,,,,,,,,,,,,,,,2026-06-28 01:08:35,마천동3공영주차장,87.5%,1.0,2,https://place.map.kakao.com/20515891,https://place.map.kakao.com/20515891#review
대림노외 공영주차장(시),구로구 구로동 120-3,1372454,NW,노외 주차장,1,시간제 주차장,,900,1900,900.0,1900.0,900.0,1900.0,93,유료,320.0,5.0,320.0,5.0,,168000.0,37.4928472,126.89433148,서울API,1.0,현재~20분이내 연계데이터 존재(현재 주차대수 표현),37.0,2026-06-28 01:16:20,Y,유료,N,야간 미개방,900.0,1900.0,N,무료,168000.0,,320.0,5.0,320.0,5.0,0.0,0.0,0.0,0.0,0.0,*,*,N,*,2026-06-28 01:08:35,,,,,,
도봉산역 공영주차장(시),도봉구 도봉동 288-19,1372873,NW,노외 주차장,1,시간제 주차장,02)2290-6047,0,2400,0.0,2400.0,0.0,2400.0,358,유료,280.0,5.0,280.0,5.0,,109000.0,37.68972069,127.04483862,서울API,1.0,현재~20분이내 연계데이터 존재(현재 주차대수 표현),56.0,2026-06-28 01:16:53,Y,유료,N,야간 미개방,0.0,2400.0,N,무료,109000.0,,280.0,5.0,280.0,5.0,0.0,0.0,0.0,0.0,0.0,*,*,N,*,2026-06-28 01:08:35,,,,,,
가로공원 지하 주차장(구),강서구 화곡동 662-15,1384016,NW,노외 주차장,3,시간제 + 거주자 주차장,02-2065-1575,0,2400,0.0,2400.0,0.0,2400.0,512,유료,100.0,5.0,100.0,5.0,,60000.0,37.5375016520826,126.839362615599,카카오,,,,,,,,,,,,,,,,,,,,,,,,,,,,2026-06-28 01:08:36,강서구가로공원 공영주차장,66.7%,4.5,2,https://place.map.kakao.com/26849059,https://place.map.kakao.com/26849059#review
동대문 공영주차장(시),중구 신당동 251-7,1384198,NW,노외 주차장,1,시간제 주차장,02)2254-4901,0,2400,0.0,2400.0,0.0,2400.0,1090,유료,360.0,5.0,360.0,5.0,,157000.0,37.56710187,127.01214106,서울API,1.0,현재~20분이내 연계데이터 존재(현재 주차대수 표현),57.0,2026-06-28 01:16:54,Y,유료,N,야간 미개방,0.0,2400.0,N,무료,157000.0,,360.0,5.0,360.0,5.0,0.0,0.0,0.0,0.0,0.0,*,*,N,*,2026-06-28 01:08:36,,,,,,
큰마을길 공영주차장(구),강북구 미아동 309-14,1384627,NS,노상 주차장,3,시간제 + 거주자 주차장,02-944-3025,900,1900,900.0,1500.0,0.0,0.0,1,유료,200.0,5.0,200.0,5.0,10000.0,100000.0,37.6236852842945,127.025222536243,카카오,,,,,,,,,,,,,,,,,,,,,,,,,,,,2026-06-28 01:08:36,큰마을길 노상공영주차장,90.0%,5.0,1,https://place.map.kakao.com/25612842,https://place.map.kakao.com/25612842#review
교육청길 공영주차장(구),강북구 미아동 137-19,1384980,NS,노상 주차장,3,시간제 + 거주자 주차장,02-944-3025,900,1900,900.0,1500.0,0.0,0.0,1,유료,200.0,5.0,200.0,5.0,10000.0,100000.0,,,,,,,,,,,,,,,,,,,,,,,,,,,,,,,2026-06-28 01:08:37,,,,,,
신문로 공영주차장(구),종로구 신문로1가 58-36,1385457,NW,노외 주차장,1,시간제 주차장,02-6048-1234,900,1900,900.0,1900.0,900.0,1900.0,30,유료,500.0,5.0,500.0,5.0,,350000.0,37.5710848703786,126.973113897647,카카오,,,,,,,,,,,,,,,,,,,,,,,,,,,,2026-06-28 01:08:38,신문로공영주차장,100.0%,1.0,3,https://place.map.kakao.com/20518565,https://place.map.kakao.com/20518565#review
서울글로벌센터 공영주차장(시),종로구 서린동 63-0,1386536,NW,노외 주차장,1,시간제 주차장,02-720-9862,900,1800,0.0,0.0,0.0,0.0,44,유료,700.0,5.0,700.0,5.0,,336000.0,37.56983402,126.98150586,서울API,1.0,현재~20분이내 연계데이터 존재(현재 주차대수 표현),0.0,2026-06-28 01:16:53,Y,유료,N,야간 미개방,0.0,0.0,Y,유료,336000.0,,700.0,5.0,700.0,5.0,0.0,0.0,0.0,0.0,0.0,*,*,N,*,2026-06-28 01:08:38,,,,,,
용답제2(평면) 공영주차장(구),성동구 용답동 182-10,1397591,NW,노외 주차장,1,시간제 주차장,02-2204-7970,0,2400,0.0,2400.0,0.0,2400.0,153,유료,150.0,5.0,,,,30000.0,37.563211640302,127.056231375546,카카오,,,,,,,,,,,,,,,,,,,,,,,,,,,,2026-06-28 01:08:38,용답제2공영주차장,100.0%,5.0,1,https://place.map.kakao.com/367470950,https://place.map.kakao.com/367470950#review
오류1동 텃골주차장(구),구로구 오류동 6-11,1404649,NW,노외 주차장,1,시간제 주차장,,0,2400,0.0,2400.0,0.0,2400.0,81,유료,100.0,5.0,100.0,5.0,,65000.0,37.4954727404224,126.839149392269,카카오,,,,,,,,,,,,,,,,,,,,,,,,,,,,2026-06-28 01:08:39,구로구 오류1동 텃골공영주차장 전기차충전소,62.1%,평가 없음,0,https://place.map.kakao.com/1776853566,
천왕역 공영주차장(시),구로구 천왕동 280-11,1404936,NW,노외 주차장,1,시간제 주차장,02-2290-6343,0,2400,0.0,2400.0,0.0,2400.0,327,유료,280.0,5.0,280.0,5.0,,109000.0,37.48728845,126.83918316,서울API,1.0,현재~20분이내 연계데이터 존재(현재 주차대수 표현),47.0,2026-06-28 01:16:54,Y,유료,N,야간 미개방,0.0,2400.0,N,무료,109000.0,,280.0,5.0,280.0,5.0,0.0,0.0,0.0,0.0,0.0,*,*,N,*,2026-06-28 01:08:39,,,,,,
중곡시장주차장(구),광진구 중곡동 221-6,1410226,NW,노외 주차장,1,시간제 주차장,,900,1900,900.0,1900.0,900.0,1900.0,19,유료,250.0,5.0,,,,,37.5638663310899,127.081905637969,카카오,,,,,,,,,,,,,,,,,,,,,,,,,,,,2026-06-28 01:08:40,중곡제일시장 공영주차장,77.8%,평가 없음,0,https://place.map.kakao.com/1115982251,
견인보관소(구),동대문구 휘경동 361-0,1415512,NW,노외 주차장,1,시간제 주차장,02-2247-9666,0,2400,0.0,2400.0,0.0,2400.0,40,유료,500.0,10.0,500.0,10.0,,170000.0,37.5890959845779,127.069062395661,카카오,,,,,,,,,,,,,,,,,,,,,,,,,,,,2026-06-28 01:08:40,견인보관소내 공영주차장,84.2%,평가 없음,0,https://place.map.kakao.com/1845499191,
구룡 공영주차장(구),금천구 독산동 964-0,1415917,NW,노외 주차장,3,시간제 + 거주자 주차장,02-809-0061~7,830,1900,830.0,1900.0,830.0,1900.0,22,유료,65.0,5.0,65.0,5.0,,50000.0,37.4778914819554,126.902760969633,카카오,,,,,,,,,,,,,,,,,,,,,,,,,,,,2026-06-28 01:08:41,구룡공영주차장,100.0%,1.0,1,https://place.map.kakao.com/26537071,https://place.map.kakao.com/26537071#review
다목적 공영주차장(구),금천구 독산동 971-0,1415929,NW,노외 주차장,3,시간제 + 거주자 주차장,02-865-7557,830,1900,830.0,1900.0,830.0,1900.0,46,유료,65.0,5.0,65.0,5.0,,50000.0,37.476366895068,126.901902152173,카카오,,,,,,,,,,,,,,,,,,,,,,,,,,,,2026-06-28 01:08:42,다목적 공영주차장,100.0%,평가 없음,0,https://place.map.kakao.com/17754662,
영등포본동제2공영(구),영등포구 신길동 186-355,1416322,NW,노외 주차장,1,시간제 주차장,02-2677-1401,0,2400,0.0,2400.0,0.0,2400.0,61,유료,50.0,5.0,50.0,5.0,,65000.0,37.5133174679741,126.914076893841,카카오,,,,,,,,,,,,,,,,,,,,,,,,,,,,2026-06-28 01:08:42,영등포본동 제2공영주차장,100.0%,평가 없음,0,https://place.map.kakao.com/20590737,
방배열린문화센터 공영주차장(구),서초구 방배동 852-14,1418248,NW,노외 주차장,1,시간제 주차장,02-382-2588,0,2400,0.0,2400.0,0.0,2400.0,109,유료,150.0,5.0,150.0,5.0,,120000.0,37.4890159005616,126.992275526963,카카오,,,,,,,,,,,,,,,,,,,,,,,,,,,,2026-06-28 01:08:43,방배열린문화센터 공영주차장,100.0%,평가 없음,0,https://place.map.kakao.com/20512769,
풍납유수지(구),송파구 가락동 387-0,1421476,NW,노외 주차장,1,시간제 주차장,02-431-0166,0,2400,0.0,2400.0,0.0,2400.0,234,유료,250.0,5.0,250.0,5.0,,,,,,,,,,,,,,,,,,,,,,,,,,,,,,,,,2026-06-28 01:08:44,,,,,,
나눔터길 노상공영주차장(구),강북구 수유동 605-185,1421586,NS,노상 주차장,3,시간제 + 거주자 주차장,,900,1900,900.0,1500.0,0.0,0.0,1,유료,200.0,5.0,200.0,5.0,10000.0,100000.0,37.63365446501,127.019299608275,카카오,,,,,,,,,,,,,,,,,,,,,,,,,,,,2026-06-28 01:08:44,,,조건 불일치 제외,,,
마장축산물시장 서문(건물) 공영주차장(구),성동구 마장동 522-1,1423842,NW,노외 주차장,1,시간제 주차장,02-2204-7970,0,2400,0.0,2400.0,0.0,2400.0,126,유료,250.0,5.0,,,,30000.0,37.5704758892257,127.038302388318,카카오,,,,,,,,,,,,,,,,,,,,,,,,,,,,2026-06-28 01:08:45,마장축산물시장서문 공영주차장,100.0%,3.0,2,https://place.map.kakao.com/20576850,https://place.map.kakao.com/20576850#review
다산아트 공영주차장(구),중구 신당동 432-612,1424206,NW,노외 주차장,1,시간제 주차장,02-2280-8360,0,2400,0.0,2400.0,0.0,2400.0,75,유료,200.0,5.0,200.0,5.0,,140000.0,37.5516644316223,127.0044247415,카카오,,,,,,,,,,,,,,,,,,,,,,,,,,,,2026-06-28 01:08:46,다산아트 공영주차장,100.0%,2.8,4,https://place.map.kakao.com/23882555,https://place.map.kakao.com/23882555#review
영등포구청별관 공영주차장(구),영등포구 당산동3가 560-0,1425391,NW,노외 주차장,1,시간제 주차장,02-2677-1401,0,2400,0.0,2400.0,0.0,2400.0,61,유료,150.0,5.0,150.0,5.0,,84000.0,37.5284498412672,126.894344614551,카카오,,,,,,,,,,,,,,,,,,,,,,,,,,,,2026-06-28 01:08:46,영등포구청 별관 공영주차장,100.0%,평가 없음,0,https://place.map.kakao.com/957531080,
동국제강 공영주차장(시),중구 삼각동 111-1,1425816,NW,노외 주차장,1,시간제 주차장,,900,1900,900.0,1900.0,0.0,0.0,13,유료,700.0,5.0,700.0,5.0,,420000.0,37.56733736,126.98343453,서울API,1.0,현재~20분이내 연계데이터 존재(현재 주차대수 표현),3.0,2026-06-28 01:16:59,Y,유료,N,야간 미개방,0.0,0.0,Y,유료,420000.0,,700.0,5.0,700.0,5.0,0.0,0.0,0.0,0.0,0.0,*,*,N,*,2026-06-28 01:08:46,,,,,,
남대문 초입 관광버스전용 주차장(시),중구 남창동 282-10,1430035,NS,노상 주차장,4,버스전용 주차장,02)2290-6449,0,0,0.0,0.0,0.0,0.0,1,무료,,,,,,,37.55953,126.975731,서울API,1.0,현재~20분이내 연계데이터 존재(현재 주차대수 표현),2.0,2026-06-28 01:16:25,N,무료,N,야간 미개방,0.0,0.0,Y,유료,0.0,1114011200195.0,0.0,0.0,0.0,0.0,0.0,0.0,0.0,0.0,0.0,*,*,N,*,2026-06-28 01:08:46,,,,,,
남대문 시장 관광버스전용 주차장(시),중구 남창동 51-4,1430042,NS,노상 주차장,4,버스전용 주차장,02)2290-6449,0,0,0.0,0.0,0.0,0.0,1,무료,,,,,,,37.55952,126.975908,서울API,1.0,현재~20분이내 연계데이터 존재(현재 주차대수 표현),2.0,2026-06-28 01:16:25,N,무료,N,야간 미개방,0.0,0.0,Y,유료,0.0,1114011200203.0,0.0,0.0,0.0,0.0,0.0,0.0,0.0,0.0,0.0,*,*,N,*,2026-06-28 01:08:46,,,,,,
고척근린공원지하주차장(구),구로구 고척동 9-14,1431448,NW,노외 주차장,1,시간제 주차장,02-850-0920,0,2400,0.0,2400.0,0.0,2400.0,199,유료,150.0,5.0,150.0,5.0,,112000.0,,,,,,,,,,,,,,,,,,,,,,,,,,,,,,,2026-06-28 01:08:47,,,,,,
구로4동 마을공동 주차장(구),구로구 구로동 741-27,1432682,NW,노외 주차장,3,시간제 + 거주자 주차장,02-839-4875,0,2400,0.0,2400.0,0.0,2400.0,194,유료,100.0,5.0,100.0,5.0,,75000.0,37.4897200636385,126.886553770733,카카오,,,,,,,,,,,,,,,,,,,,,,,,,,,,2026-06-28 01:08:48,구로4동마을 공영주차장,90.9%,3.3,3,https://place.map.kakao.com/11475878,https://place.map.kakao.com/11475878#review
독산4동 공영주차장(구),금천구 독산동 187-40,1434175,NW,노외 주차장,1,시간제 주차장,,0,2400,0.0,2400.0,0.0,2400.0,63,유료,65.0,5.0,65.0,5.0,50000.0,50000.0,37.4694331429179,126.904504997138,카카오,,,,,,,,,,,,,,,,,,,,,,,,,,,,2026-06-28 01:08:48,독산4동공영주차장,100.0%,평가 없음,0,https://place.map.kakao.com/26617293,
가산디지털 서측(구),금천구 가산동 505-3,1436808,NW,노외 주차장,1,시간제 주차장,,830,1900,0.0,2400.0,0.0,2400.0,160,유료,300.0,10.0,300.0,10.0,9000.0,100000.0,37.48569445647,126.879637722622,카카오,,,,,,,,,,,,,,,,,,,,,,,,,,,,2026-06-28 01:08:49,가산디지털단지역 서측 공영주차장,80.0%,5.0,2,https://place.map.kakao.com/27141641,https://place.map.kakao.com/27141641#review
영남 공영주차장(시),영등포구 영등포동4가 123-0,1437917,NW,노외 주차장,1,시간제 주차장,02-1688-1054,0,2400,0.0,2400.0,0.0,2400.0,570,유료,160.0,5.0,160.0,5.0,,110000.0,37.51947074,126.90260898,서울API,1.0,현재~20분이내 연계데이터 존재(현재 주차대수 표현),221.0,2026-06-28 01:16:54,Y,유료,N,야간 미개방,0.0,2400.0,N,무료,110000.0,,160.0,5.0,160.0,5.0,0.0,0.0,0.0,0.0,0.0,*,*,N,*,2026-06-28 01:08:49,,,,,,
수유마을시장 공영주차장(구),강북구 수유동 55-53,1439690,NW,노외 주차장,1,시간제 주차장,02-944-3053,0,2400,0.0,2400.0,0.0,2400.0,116,유료,100.0,5.0,100.0,5.0,10000.0,80000.0,,,,,,,,,,,,,,,,,,,,,,,,,,,,,,,2026-06-28 01:08:50,,,,,,
시흥4동 공영주차장(신흥초교지하)(구),금천구 시흥동 704-56,1440586,NW,노외 주차장,1,시간제 주차장,,0,1900,0.0,1900.0,0.0,1900.0,124,유료,65.0,5.0,65.0,5.0,,,37.4594177956946,126.908870798741,카카오,,,,,,,,,,,,,,,,,,,,,,,,,,,,2026-06-28 01:08:50,시흥4동공영주차장,100.0%,평가 없음,0,https://place.map.kakao.com/20518477,
시흥 4동 (삼성)공영주차장(구),금천구 시흥동 171-1,1440587,NW,노외 주차장,3,시간제 + 거주자 주차장,,830,1900,830.0,1900.0,830.0,1900.0,51,유료,65.0,5.0,65.0,5.0,,50000.0,37.4545817379705,126.909034783183,카카오,,,,,,,,,,,,,,,,,,,,,,,,,,,,2026-06-28 01:08:51,삼성공영주차장,62.5%,평가 없음,0,https://place.map.kakao.com/26536601,
도곡초 공영주차장(구),강남구 대치동 924-10,1441342,NW,노외 주차장,1,시간제 주차장,02-3423-6403,0,2400,0.0,2400.0,0.0,2400.0,195,유료,300.0,5.0,300.0,5.0,,180000.0,37.4990611740667,127.054670342126,카카오,,,,,,,,,,,,,,,,,,,,,,,,,,,,2026-06-28 01:08:52,도곡초등학교 공영주차장,84.2%,1.0,2,https://place.map.kakao.com/1155728213,https://place.map.kakao.com/1155728213#review
놀이마당(구),송파구 잠실동 47-0,1441348,NW,노외 주차장,1,시간제 주차장,02-431-0166,0,2400,0.0,2400.0,0.0,2400.0,15,유료,500.0,5.0,500.0,5.0,,,37.507704547907,127.100563730672,카카오,,,,,,,,,,,,,,,,,,,,,,,,,,,,2026-06-28 01:08:52,,,조건 불일치 제외,,,
신구초 공영주차장(구),강남구 신사동 550-11,1441353,NW,노외 주차장,1,시간제 주차장,02-3423-6403,0,2400,0.0,2400.0,0.0,2400.0,184,유료,300.0,5.0,300.0,5.0,,180000.0,37.5231190660522,127.024185906547,카카오,,,,,,,,,,,,,,,,,,,,,,,,,,,,2026-06-28 01:08:53,신구초교공영주차장,94.1%,2.4,10,https://place.map.kakao.com/26826662,https://place.map.kakao.com/26826662#review
역삼문화공원 공영주차장(구),강남구 역삼동 635-0,1441360,NW,노외 주차장,1,시간제 주차장,02-2176-0907,0,2400,0.0,2400.0,0.0,2400.0,59,유료,300.0,5.0,300.0,5.0,,180000.0,37.5022483202241,127.029974397827,카카오,,,,,,,,,,,,,,,,,,,,,,,,,,,,2026-06-28 01:08:54,역삼문화공원 제2호공영주차장,88.0%,3.1,7,https://place.map.kakao.com/27206549,https://place.map.kakao.com/27206549#review
방이고분(구),송파구 방이동 125-0,1441378,NW,노외 주차장,1,시간제 주차장,02-3431-4155,900,1800,900.0,1500.0,,,60,유료,100.0,5.0,100.0,5.0,,,37.5079306958477,127.11809126512,카카오,,,,,,,,,,,,,,,,,,,,,,,,,,,,2026-06-28 01:08:54,,,조건 불일치 제외,,,
송파나루공원 동호주차장(구),송파구 신천동 32-0,1441386,NW,노외 주차장,1,시간제 주차장,02-424-1199,0,0,0.0,0.0,0.0,0.0,20,유료,500.0,5.0,,,,,37.5113239532932,127.105138547809,카카오,,,,,,,,,,,,,,,,,,,,,,,,,,,,2026-06-28 01:08:55,,,조건 불일치 제외,,,
엔젤데이케이센터 지하주차장(구),동작구 사당동 278-34,1441388,NW,노외 주차장,1,시간제 주차장,832-2445,0,2400,0.0,2400.0,0.0,2400.0,5,유료,600.0,30.0,600.0,30.0,,65000.0,37.4826686900119,126.970295506808,카카오,,,,,,,,,,,,,,,,,,,,,,,,,,,,2026-06-28 01:08:56,,,조건 불일치 제외,,,
송파근린공원(구),송파구 송파동 113-2,1441397,NW,노외 주차장,1,시간제 주차장,02-418-3854,0,2400,0.0,2400.0,0.0,2400.0,324,유료,150.0,5.0,150.0,5.0,,140000.0,37.5058982075679,127.109779624469,카카오,,,,,,,,,,,,,,,,,,,,,,,,,,,,2026-06-28 01:08:56,송파근린공원 공영주차장,90.0%,5.0,3,https://place.map.kakao.com/9205222,https://place.map.kakao.com/9205222#review
경부제3녹지공영주차장(구),영등포구 신길동 69-39,1448769,NW,노외 주차장,1,시간제 주차장,02-2677-1401,0,2400,0.0,2400.0,0.0,2400.0,143,유료,100.0,5.0,100.0,5.0,,70000.0,37.5133214863368,126.923457188855,카카오,,,,,,,,,,,,,,,,,,,,,,,,,,,,2026-06-28 01:08:57,경부제3녹지 공영주차장,100.0%,평가 없음,0,https://place.map.kakao.com/1559247594,
청계7가 공영주차장(시),종로구 창신동 436-87,1451364,NS,노상 주차장,1,시간제 주차장,,900,1900,900.0,1500.0,0.0,0.0,1,유료,450.0,5.0,450.0,5.0,,,37.57207997,127.02099615,서울API,1.0,현재~20분이내 연계데이터 존재(현재 주차대수 표현),7.0,2026-06-28 01:16:55,Y,유료,N,야간 미개방,0.0,0.0,Y,유료,0.0,1111017400026.0,450.0,5.0,450.0,5.0,0.0,0.0,0.0,0.0,0.0,*,*,N,*,2026-06-28 01:08:57,,,,,,
동순라길(종묘) 관광버스전용 주차장(시),종로구 인의동 107-1,1451370,NS,노상 주차장,4,버스전용 주차장,02-2290-6449,0,0,0.0,0.0,0.0,0.0,1,무료,,,,,,,37.57267895,126.9967579,서울API,1.0,현재~20분이내 연계데이터 존재(현재 주차대수 표현),3.0,2026-06-28 01:16:25,N,무료,N,야간 미개방,0.0,0.0,Y,유료,0.0,1111015700003.0,0.0,0.0,0.0,0.0,0.0,0.0,0.0,0.0,0.0,*,*,N,*,2026-06-28 01:08:57,,,,,,
세운상가밑(구),종로구 장사동 116-3,1451371,NS,노상 주차장,1,시간제 주차장,,900,1900,900.0,1500.0,0.0,0.0,1,유료,500.0,5.0,1000.0,10.0,,250000.0,,,,,,,,,,,,,,,,,,,,,,,,,,,,,,,2026-06-28 01:08:58,,,,,,
낙산성곽 버스전용 주차장(구),종로구 창신동 615-62,1451409,NS,노상 주차장,4,버스전용 주차장,,0,0,0.0,0.0,0.0,0.0,1,무료,,,,,,,37.5802340504935,127.008794786178,카카오,,,,,,,,,,,,,,,,,,,,,,,,,,,,2026-06-28 01:08:58,,,조건 불일치 제외,,,
열린마당(구),종로구 세종로 111-0 옆,1451525,NS,노상 주차장,1,시간제 주차장,,900,2100,900.0,1500.0,0.0,0.0,1,유료,500.0,5.0,1000.0,10.0,,250000.0,,,,,,,,,,,,,,,,,,,,,,,,,,,,,,,2026-06-28 01:08:59,,,,,,
종각(구),종로구 관철동 45-9,1451594,NS,노상 주차장,1,시간제 주차장,,1000,2200,900.0,1800.0,0.0,0.0,1,유료,500.0,5.0,1000.0,10.0,,250000.0,37.5696089152914,126.983139184367,카카오,,,,,,,,,,,,,,,,,,,,,,,,,,,,2026-06-28 01:09:00,종각뒤 공영주차장,76.9%,2.0,3,https://place.map.kakao.com/11475963,https://place.map.kakao.com/11475963#review
원서공원 앞(구),종로구 와룡동 206-0,1451598,NS,노상 주차장,1,시간제 주차장,,900,1900,900.0,1900.0,900.0,1900.0,1,유료,500.0,5.0,500.0,5.0,,250000.0,,,,,,,,,,,,,,,,,,,,,,,,,,,,,,,2026-06-28 01:09:00,,,,,,
광화문빌딩(구),종로구 당주동 40-9,1451912,NS,노상 주차장,1,시간제 주차장,,1000,2200,1000.0,1800.0,1000.0,1800.0,1,유료,500.0,5.0,1000.0,10.0,,250000.0,37.5716040231474,126.974325153872,카카오,,,,,,,,,,,,,,,,,,,,,,,,,,,,2026-06-28 01:09:01,,,조건 불일치 제외,,,
삼청공원앞(구),종로구 삼청동 25-11,1451913,NS,노상 주차장,1,시간제 주차장,,900,2100,900.0,1700.0,0.0,0.0,1,유료,250.0,5.0,500.0,10.0,,180000.0,37.5871761856931,126.982233527556,카카오,,,,,,,,,,,,,,,,,,,,,,,,,,,,2026-06-28 01:09:02,삼청제1공영주차장,70.6%,3.7,7,https://place.map.kakao.com/889007503,https://place.map.kakao.com/889007503#review
청계1(북) 공영주차장(시),종로구 관철동 13-14,1451938,NS,노상 주차장,1,시간제 주차장,,900,1900,900.0,1500.0,0.0,0.0,1,유료,750.0,5.0,750.0,5.0,,,37.56829211,126.98857075,서울API,1.0,현재~20분이내 연계데이터 존재(현재 주차대수 표현),4.0,2026-06-28 01:16:55,Y,유료,N,야간 미개방,0.0,0.0,Y,유료,0.0,1111013500003.0,750.0,5.0,750.0,5.0,0.0,0.0,0.0,0.0,0.0,*,*,N,*,2026-06-28 01:09:02,,,,,,
청계5(북1) 공영주차장(시),종로구 종로5가 458-2,1452019,NS,노상 주차장,1,시간제 주차장,,900,1900,900.0,1500.0,0.0,0.0,1,유료,750.0,5.0,750.0,5.0,,,37.56982884,127.00598957,서울API,1.0,현재~20분이내 연계데이터 존재(현재 주차대수 표현),4.0,2026-06-28 01:16:58,Y,유료,N,야간 미개방,0.0,0.0,Y,유료,0.0,1111016300002.0,750.0,5.0,750.0,5.0,0.0,0.0,0.0,0.0,0.0,*,*,N,*,2026-06-28 01:09:02,,,,,,
청계6(북) 공영주차장(시),종로구 종로6가 289-49,1452441,NS,노상 주차장,1,시간제 주차장,,900,100,900.0,1500.0,0.0,0.0,1,유료,450.0,5.0,450.0,5.0,,,37.56997057,127.010926,서울API,1.0,현재~20분이내 연계데이터 존재(현재 주차대수 표현),4.0,2026-06-28 01:16:58,Y,유료,N,야간 미개방,0.0,0.0,Y,유료,0.0,1111016400024.0,450.0,5.0,450.0,5.0,0.0,0.0,0.0,0.0,0.0,*,*,N,*,2026-06-28 01:09:02,,,,,,
당고개위 공영주차장(시),노원구 상계동 111-568,1453742,NS,노상 주차장,1,시간제 주차장,02-1688-1054,900,2200,900.0,2200.0,900.0,2200.0,1,유료,400.0,5.0,400.0,5.0,,,37.67041699,127.08060398,서울API,1.0,현재~20분이내 연계데이터 존재(현재 주차대수 표현),4.0,2026-06-28 01:16:55,Y,유료,N,야간 미개방,900.0,2200.0,N,무료,0.0,1135010500056.0,400.0,5.0,400.0,5.0,0.0,0.0,0.0,0.0,0.0,*,*,N,*,2026-06-28 01:09:02,,,,,,
수락산디자인서울거리(구),노원구 상계동 996-2,1453816,NS,노상 주차장,1,시간제 주차장,,900,1900,900.0,1800.0,900.0,1800.0,1,유료,150.0,5.0,,,19800.0,100000.0,37.6745427016739,127.060323821632,카카오,,,,,,,,,,,,,,,,,,,,,,,,,,,,2026-06-28 01:09:02,수락산디자인거리 공영주차장 전기차충전소,68.8%,평가 없음,0,https://place.map.kakao.com/157837868,
주공7단지옆(구),노원구 상계동 693-5,1453857,NS,노상 주차장,1,시간제 주차장,,900,1900,900.0,1800.0,900.0,1800.0,1,유료,250.0,5.0,,,33000.0,150000.0,37.6562650862218,127.060948757682,카카오,,,,,,,,,,,,,,,,,,,,,,,,,,,,2026-06-28 01:09:03,주공7단지 주차장,94.1%,평가 없음,0,https://place.map.kakao.com/1305274308,
(구)북부지법주변(구),노원구 공릉동 629-1,1453979,NS,노상 주차장,1,시간제 주차장,,900,1900,900.0,1800.0,900.0,1800.0,1,유료,250.0,5.0,,,33000.0,150000.0,37.6190979440799,127.077505173507,카카오,,,,,,,,,,,,,,,,,,,,,,,,,,,,2026-06-28 01:09:04,,,조건 불일치 제외,,,
유경백화점뒤(구),노원구 중계동 364-16,1454052,NS,노상 주차장,1,시간제 주차장,,900,1900,900.0,1800.0,900.0,1800.0,1,유료,250.0,5.0,,,33000.0,150000.0,37.6502953463556,127.077542909409,카카오,,,,,,,,,,,,,,,,,,,,,,,,,,,,2026-06-28 01:09:04,,,조건 불일치 제외,,,
주공6단지상가주변(구),노원구 상계동 723-2,1454055,NS,노상 주차장,1,시간제 주차장,,900,1900,900.0,1800.0,900.0,1800.0,1,유료,250.0,5.0,,,33000.0,150000.0,37.6538362665334,127.062236722451,카카오,,,,,,,,,,,,,,,,,,,,,,,,,,,,2026-06-28 01:09:05,주공6단지상가주변공영주차장,92.3%,1.0,1,https://place.map.kakao.com/27109149,https://place.map.kakao.com/27109149#review
청구건영아파트옆(구),노원구 중계동 360-4,1454202,NS,노상 주차장,1,시간제 주차장,,900,1900,900.0,1800.0,900.0,1800.0,1,유료,250.0,5.0,,,33000.0,150000.0,37.6503325197976,127.075797863711,카카오,,,,,,,,,,,,,,,,,,,,,,,,,,,,2026-06-28 01:09:06,청구건영아파트옆 공영주차장,91.7%,평가 없음,0,https://place.map.kakao.com/25620249,
신한증권옆(구),노원구 중계동 366-12,1454316,NS,노상 주차장,1,시간제 주차장,,900,1900,900.0,1800.0,900.0,1800.0,1,유료,250.0,5.0,,,33000.0,150000.0,37.6512838555396,127.077617707646,카카오,,,,,,,,,,,,,,,,,,,,,,,,,,,,2026-06-28 01:09:06,,,조건 불일치 제외,,,
주공5단지옆(구),노원구 중계동 359-16,1454520,NS,노상 주차장,1,시간제 주차장,,900,1900,900.0,1800.0,900.0,1800.0,1,유료,250.0,5.0,,,33000.0,150000.0,37.6515727772772,127.07641150043,카카오,,,,,,,,,,,,,,,,,,,,,,,,,,,,2026-06-28 01:09:07,,,조건 불일치 제외,,,
부영그린 공영노상주차장(구),양천구 목동 908-35,147462,NS,노상 주차장,1,시간제 주차장,02-2644-1386,900,1900,900.0,1500.0,0.0,0.0,1,유료,150.0,5.0,,,9000.0,100000.0,37.5369886229654,126.881434897961,카카오,,,,,,,,,,,,,,,,,,,,,,,,,,,,2026-06-28 01:09:08,부영그린공영주차장,90.0%,5.0,1,https://place.map.kakao.com/27217359,https://place.map.kakao.com/27217359#review
성내역(잠실나루역) 공영주차장(시),송파구 신천동 11-1,1475224,NS,노상 주차장,1,시간제 주차장,,900,1800,900.0,1500.0,0.0,0.0,1,유료,270.0,5.0,270.0,5.0,,,37.51757323,127.1050743,서울API,1.0,현재~20분이내 연계데이터 존재(현재 주차대수 표현),15.0,2026-06-28 01:16:23,Y,유료,N,야간 미개방,0.0,0.0,Y,유료,,1171010200007.0,270.0,5.0,270.0,5.0,0.0,0.0,0.0,0.0,0.0,*,*,N,*,2026-06-28 01:09:08,,,,,,
동작대교(위) 공영주차장(시),동작구 동작동 316-3,1477337,NS,노상 주차장,1,시간제 주차장,,1300,2200,1300.0,2200.0,1300.0,2200.0,1,유료,450.0,5.0,450.0,5.0,,,37.50518327,126.9807545,서울API,1.0,현재~20분이내 연계데이터 존재(현재 주차대수 표현),9.0,2026-06-28 01:16:21,Y,유료,N,야간 미개방,1300.0,2200.0,N,무료,0.0,1159010600002.0,450.0,5.0,450.0,5.0,0.0,0.0,0.0,0.0,0.0,*,*,N,*,2026-06-28 01:09:08,,,,,,
삼성동 제1공영주차장(구),관악구 신림동 808-498 원산2길 40 일대,1486889,NS,노상 주차장,1,시간제 주차장,02-2081-2600,900,1900,0.0,0.0,0.0,0.0,1,유료,150.0,5.0,,,,,37.4686768047813,126.930999251416,카카오,,,,,,,,,,,,,,,,,,,,,,,,,,,,2026-06-28 01:09:08,삼성동제1공영주차장,100.0%,5.0,1,https://place.map.kakao.com/20517182,https://place.map.kakao.com/20517182#review
신림동 제2공영주차장(구),관악구 신림동 1472-1,1486978,NS,노상 주차장,1,시간제 주차장,02-2081-2600,1000,2000,1000.0,2000.0,1000.0,2000.0,1,유료,250.0,5.0,,,,,37.484624154667,126.925258678281,카카오,,,,,,,,,,,,,,,,,,,,,,,,,,,,2026-06-28 01:09:09,신림동제2노상공영주차장,90.9%,4.3,3,https://place.map.kakao.com/17100725,https://place.map.kakao.com/17100725#review
조원동 제2공영주차장(구),관악구 신림동 1675-5 조원로 4~37구간,1486995,NS,노상 주차장,1,시간제 주차장,02-2081-2600,1000,2000,1000.0,2000.0,1000.0,2000.0,1,유료,250.0,5.0,,,,,37.4839833114527,126.907844072457,카카오,,,,,,,,,,,,,,,,,,,,,,,,,,,,2026-06-28 01:09:10,,,조건 불일치 제외,,,
낙성대 제1공영주차장(구),관악구 봉천동 1627-10,1486998,NS,노상 주차장,1,시간제 주차장,02-2081-2600,1000,2000,1000.0,2000.0,1000.0,2000.0,1,유료,250.0,5.0,,,,,37.4778567653378,126.958885853966,카카오,,,,,,,,,,,,,,,,,,,,,,,,,,,,2026-06-28 01:09:10,낙성대제1공영주차장,100.0%,평가 없음,0,https://place.map.kakao.com/20514156,
서원동 제1공영주차장(구),관악구 신림동 1642-7 관천로 32~44구간,1487237,NS,노상 주차장,1,시간제 주차장,02-2081-2600,1000,2000,1000.0,2000.0,1000.0,2000.0,1,유료,250.0,5.0,,,,,,,,,,,,,,,,,,,,,,,,,,,,,,,,,,,2026-06-28 01:09:11,,,,,,
영동대로106길(구),강남구 삼성동 172-7,1495425,NS,노상 주차장,1,시간제 주차장,,900,1900,0.0,0.0,0.0,0.0,1,유료,300.0,5.0,300.0,5.0,,120000.0,37.5137854827037,127.063002500052,카카오,,,,,,,,,,,,,,,,,,,,,,,,,,,,2026-06-28 01:09:11,,,조건 불일치 제외,,,
논현로28길 노상공영 주차장(구),강남구 도곡동 524-0,1495481,NS,노상 주차장,1,시간제 주차장,02-2176-0907,900,1900,0.0,0.0,0.0,0.0,1,유료,300.0,5.0,300.0,5.0,,120000.0,37.4832424381052,127.044161919943,카카오,,,,,,,,,,,,,,,,,,,,,,,,,,,,2026-06-28 01:09:12,논현로28길 노상공영주차장,100.0%,5.0,1,https://place.map.kakao.com/17772274,https://place.map.kakao.com/17772274#review
테헤란로64길(구),강남구 대치동 1011-19,1495580,NS,노상 주차장,1,시간제 주차장,,900,1900,0.0,0.0,0.0,0.0,1,유료,400.0,5.0,400.0,5.0,,150000.0,37.50340263911,127.051118826806,카카오,,,,,,,,,,,,,,,,,,,,,,,,,,,,2026-06-28 01:09:14,롯데로즈골드1차 주차장,38.1%,평가 없음,0,https://place.map.kakao.com/26377527,
도산대로45길(구),강남구 신사동 668-23,1495582,NS,노상 주차장,1,시간제 주차장,02-1544-3113,1000,2000,0.0,0.0,0.0,0.0,1,유료,400.0,5.0,400.0,5.0,,150000.0,37.5230420496019,127.035517099123,카카오,,,,,,,,,,,,,,,,,,,,,,,,,,,,2026-06-28 01:09:14,신사슬기길주차장,44.4%,평가 없음,0,https://place.map.kakao.com/20518580,
선릉로146길 노상공영주차장(구),강남구 청담동 77-27,1495593,NS,노상 주차장,1,시간제 주차장,,1000,2000,0.0,0.0,0.0,0.0,1,유료,400.0,5.0,,,,150000.0,37.5219312073196,127.041063544542,카카오,,,,,,,,,,,,,,,,,,,,,,,,,,,,2026-06-28 01:09:15,선릉로146길 공영노상주차장,85.7%,4.0,2,https://place.map.kakao.com/26826660,https://place.map.kakao.com/26826660#review
선릉로132길 노상공영 주차장(구),강남구 청담동 77-84,1495594,NS,노상 주차장,1,시간제 주차장,,900,1900,0.0,0.0,0.0,0.0,1,유료,400.0,5.0,400.0,5.0,,150000.0,37.5182185145223,127.042645149412,카카오,,,,,,,,,,,,,,,,,,,,,,,,,,,,2026-06-28 01:09:16,선릉로132길 노상공영주차장,100.0%,평가 없음,0,https://place.map.kakao.com/17768868,
영동대로85길(구),강남구 대치동 1012-15,1495596,NS,노상 주차장,1,시간제 주차장,,900,1900,0.0,0.0,0.0,0.0,1,유료,400.0,5.0,400.0,5.0,,150000.0,37.5069412499922,127.05830988059,카카오,,,,,,,,,,,,,,,,,,,,,,,,,,,,2026-06-28 01:09:17,,,조건 불일치 제외,,,
남부순환로397길(구),강남구 대치동 600-13,1495622,NS,노상 주차장,1,시간제 주차장,,900,1900,0.0,0.0,0.0,0.0,1,유료,300.0,5.0,300.0,5.0,,120000.0,37.4941317654635,127.060408876576,카카오,,,,,,,,,,,,,,,,,,,,,,,,,,,,2026-06-28 01:09:18,,,조건 불일치 제외,,,
대치동507-3(구),강남구 대치동 507-3,1495632,NS,노상 주차장,1,시간제 주차장,,900,1900,0.0,0.0,0.0,0.0,1,유료,300.0,5.0,300.0,5.0,,120000.0,37.4933427717736,127.062623582885,카카오,,,,,,,,,,,,,,,,,,,,,,,,,,,,2026-06-28 01:09:19,대치동507-3 노상공영주차장,84.6%,5.0,1,https://place.map.kakao.com/17772323,https://place.map.kakao.com/17772323#review
영동대로96길(구),강남구 삼성동 172-41,1495682,NS,노상 주차장,1,시간제 주차장,,900,1900,0.0,0.0,0.0,0.0,1,유료,300.0,5.0,300.0,5.0,,120000.0,37.5113748296893,127.065028251795,카카오,,,,,,,,,,,,,,,,,,,,,,,,,,,,2026-06-28 01:09:19,대윤빌딩 주차장,47.1%,평가 없음,0,https://place.map.kakao.com/26537163,
언주로147길(구),강남구 논현동 279-22,1495734,NS,노상 주차장,1,시간제 주차장,,900,1900,0.0,0.0,0.0,0.0,1,유료,400.0,5.0,400.0,5.0,,150000.0,37.5198703412914,127.033347658609,카카오,,,,,,,,,,,,,,,,,,,,,,,,,,,,2026-06-28 01:09:20,나누리병원 신관 주차장,30.0%,평가 없음,0,https://place.map.kakao.com/53055515,
영동대로85길(구),강남구 대치동 1012-111,1495787,NS,노상 주차장,1,시간제 주차장,,900,1900,0.0,0.0,0.0,0.0,1,유료,400.0,5.0,400.0,5.0,,150000.0,37.5058409022446,127.05857367505,카카오,,,,,,,,,,,,,,,,,,,,,,,,,,,,2026-06-28 01:09:21,영동대로85길 노상공영주차장(요금정산소 옆) 전기차충전소,52.6%,평가 없음,0,https://place.map.kakao.com/164314637,
언주로171길(구),강남구 신사동 668-11,1495907,NS,노상 주차장,1,시간제 주차장,,900,1900,0.0,0.0,0.0,0.0,1,유료,400.0,5.0,400.0,5.0,,150000.0,37.5276011903962,127.03245736275,카카오,,,,,,,,,,,,,,,,,,,,,,,,,,,,2026-06-28 01:09:22,언주로171길 노상공영주차장,83.3%,2.5,2,https://place.map.kakao.com/17768288,https://place.map.kakao.com/17768288#review
압구정고가1 공영주차장(시),강남구 신사동 668-0,1496216,NS,노상 주차장,1,시간제 주차장,,800,2100,900.0,2100.0,900.0,2100.0,1,유료,810.0,5.0,810.0,5.0,,,37.52611513,127.0284475,서울API,1.0,현재~20분이내 연계데이터 존재(현재 주차대수 표현),1.0,2026-06-28 01:16:22,Y,유료,N,야간 미개방,900.0,2100.0,N,무료,0.0,1168010700019.0,810.0,5.0,810.0,5.0,0.0,0.0,0.0,0.0,0.0,*,*,N,*,2026-06-28 01:09:22,,,,,,
동호대교(남) 공영주차장(시),강남구 압구정동 435-0,1496233,NS,노상 주차장,1,시간제 주차장,,900,1900,900.0,1900.0,0.0,0.0,1,유료,290.0,5.0,290.0,5.0,,105000.0,37.53106835,127.02481727,서울API,1.0,현재~20분이내 연계데이터 존재(현재 주차대수 표현),15.0,2026-06-28 01:16:23,Y,유료,N,야간 미개방,0.0,0.0,Y,유료,105000.0,1168011000004.0,290.0,5.0,290.0,5.0,0.0,0.0,0.0,0.0,0.0,*,*,N,*,2026-06-28 01:09:22,,,,,,
개포주공5단지북측(구),강남구 개포동 186-4 ,1496801,NS,노상 주차장,1,시간제 주차장,02-445-8879,900,1900,900.0,1900.0,0.0,0.0,1,유료,300.0,5.0,300.0,5.0,,120000.0,37.4886377509428,127.067776325003,카카오,,,,,,,,,,,,,,,,,,,,,,,,,,,,2026-06-28 01:09:23,,,조건 불일치 제외,,,
대림역2 공영주차장(시),구로구 구로동 73-9,1499707,NS,노상 주차장,1,시간제 주차장,,900,1900,900.0,1500.0,0.0,0.0,1,유료,400.0,5.0,400.0,5.0,,160000.0,37.49568958,126.89374306,서울API,1.0,현재~20분이내 연계데이터 존재(현재 주차대수 표현),13.0,2026-06-28 01:17:00,Y,유료,N,야간 미개방,0.0,0.0,Y,유료,160000.0,1153010200069.0,400.0,5.0,400.0,5.0,0.0,0.0,0.0,0.0,0.0,*,*,N,*,2026-06-28 01:09:23,,,,,,
배다리동길 노상공영주차장(구),강서구 화곡동 890-0,1503228,NS,노상 주차장,1,시간제 주차장,02-2065-1575,900,1900,900.0,1500.0,0.0,0.0,1,유료,200.0,5.0,,,,120000.0,37.5290456595599,126.848908049873,카카오,,,,,,,,,,,,,,,,,,,,,,,,,,,,2026-06-28 01:09:24,,,조건 불일치 제외,,,
등촌3동 구암길(구),강서구 등촌동 695-0,1503430,NS,노상 주차장,1,시간제 주차장,02-1899-5498,900,1900,900.0,1500.0,0.0,0.0,1,유료,250.0,5.0,250.0,5.0,10000.0,120000.0,37.5604516606831,126.84486883674,카카오,,,,,,,,,,,,,,,,,,,,,,,,,,,,2026-06-28 01:09:24,등촌3동구암길 노상공영주차장,83.3%,평가 없음,0,https://place.map.kakao.com/25612180,
방죽길 노상공영주차장(구),강서구 화곡동 1111-8,1503473,NS,노상 주차장,1,시간제 주차장,02-2065-1575,900,1900,900.0,1500.0,0.0,0.0,1,유료,250.0,5.0,,,,120000.0,37.552965686177,126.85163468937,카카오,,,,,,,,,,,,,,,,,,,,,,,,,,,,2026-06-28 01:09:25,화곡8동방죽길노상공영주차장,83.3%,평가 없음,0,https://place.map.kakao.com/1624492327,
달구지길 노상공영주차장(구),강서구 화곡동 361-1,1503674,NS,노상 주차장,3,시간제 + 거주자 주차장,02-2065-1575,900,1900,0.0,0.0,0.0,0.0,1,유료,250.0,5.0,,,,120000.0,37.5336462319505,126.837356988102,카카오,,,,,,,,,,,,,,,,,,,,,,,,,,,,2026-06-28 01:09:26,달구지길 노상공영주차장,100.0%,평가 없음,0,https://place.map.kakao.com/26229688,
배다리서길 노상공영주차장(구),강서구 화곡동 949-7,1503981,NS,노상 주차장,1,시간제 주차장,02-2065-1575,900,1900,900.0,1500.0,0.0,0.0,1,유료,200.0,5.0,,,,120000.0,37.5285442405257,126.846661682221,카카오,,,,,,,,,,,,,,,,,,,,,,,,,,,,2026-06-28 01:09:27,,,조건 불일치 제외,,,
방신시장 고객주차장(구),강서구 방화동 858-0,1504402,NS,노상 주차장,1,시간제 주차장,02-2666-4080,900,1900,900.0,1900.0,0.0,0.0,1,유료,250.0,5.0,,,,60000.0,37.5723385124426,126.813329982301,카카오,,,,,,,,,,,,,,,,,,,,,,,,,,,,2026-06-28 01:09:28,,,조건 불일치 제외,,,
가양3동 황금내공원길(구),강서구 가양동 1485-0,1504483,NS,노상 주차장,1,시간제 주차장,02-2607-9113,900,1900,900.0,1500.0,0.0,0.0,1,유료,100.0,5.0,100.0,5.0,5000.0,50000.0,37.5632291233676,126.859294056062,카카오,,,,,,,,,,,,,,,,,,,,,,,,,,,,2026-06-28 01:09:29,,,조건 불일치 제외,,,
꿈나무길 노상공영주차장(구),강서구 등촌동 709-16,1504492,NS,노상 주차장,1,시간제 주차장,02-2065-1575,900,1900,900.0,1500.0,0.0,0.0,1,유료,250.0,5.0,,,,120000.0,37.5599790866216,126.846383600461,카카오,,,,,,,,,,,,,,,,,,,,,,,,,,,,2026-06-28 01:09:30,꿈나무길노상공영주차장,100.0%,5.0,1,https://place.map.kakao.com/2068153562,https://place.map.kakao.com/2068153562#review
망원 유료 주차장(구),마포구 망원동 394-79,1504622,NS,노상 주차장,1,시간제 주차장,,900,1900,0.0,0.0,0.0,0.0,1,유료,150.0,5.0,150.0,5.0,,100000.0,37.5523777664746,126.904709801334,카카오,,,,,,,,,,,,,,,,,,,,,,,,,,,,2026-06-28 01:09:31,,,조건 불일치 제외,,,
용강동 노상 공영주차장(구),마포구 용강동 122-15,1504664,NS,노상 주차장,1,시간제 주차장,,1200,2200,1200.0,1800.0,0.0,0.0,1,유료,250.0,5.0,250.0,5.0,,,37.5410997840414,126.941515978439,카카오,,,,,,,,,,,,,,,,,,,,,,,,,,,,2026-06-28 01:09:31,,,조건 불일치 제외,,,
신학대길 노상공영주차장(구),강서구 화곡동 980-19,1504672,NS,노상 주차장,1,시간제 주차장,02-2065-1575,900,1900,900.0,1500.0,0.0,0.0,1,유료,250.0,5.0,,,,120000.0,,,,,,,,,,,,,,,,,,,,,,,,,,,,,,,2026-06-28 01:09:32,,,,,,
경남 공영주차장(구),마포구 서교동 376-5,1505123,NS,노상 주차장,1,시간제 주차장,,1100,2100,1100.0,2100.0,0.0,0.0,1,유료,250.0,5.0,250.0,5.0,,150000.0,37.5532814832194,126.917797558992,카카오,,,,,,,,,,,,,,,,,,,,,,,,,,,,2026-06-28 01:09:33,,,조건 불일치 제외,,,
연남 유료 주차장(구),마포구 연남동 258-3,1506891,NS,노상 주차장,1,시간제 주차장,,1000,2100,1000.0,2100.0,0.0,0.0,1,유료,250.0,5.0,250.0,5.0,,150000.0,37.5620216042174,126.924121466838,카카오,,,,,,,,,,,,,,,,,,,,,,,,,,,,2026-06-28 01:09:34,,,조건 불일치 제외,,,
청기와 유료 주차장(구),마포구 서교동 479-4,1508823,NS,노상 주차장,1,시간제 주차장,,1100,2100,0.0,0.0,0.0,0.0,1,유료,250.0,5.0,250.0,5.0,,120000.0,37.554746797222,126.913047920186,카카오,,,,,,,,,,,,,,,,,,,,,,,,,,,,2026-06-28 01:09:35,,,조건 불일치 제외,,,
DDP동측(양쪽) 관광버스전용 주차장(시),중구 을지로7가 2-36,1509186,NS,노상 주차장,4,버스전용 주차장,02-2290-6449,0,0,0.0,0.0,0.0,0.0,1,무료,,,,,,,37.56612746,127.0114906,서울API,1.0,현재~20분이내 연계데이터 존재(현재 주차대수 표현),5.0,2026-06-28 01:16:24,N,무료,N,야간 미개방,0.0,0.0,Y,유료,0.0,1114014900221.0,0.0,0.0,0.0,0.0,0.0,0.0,0.0,0.0,0.0,*,*,N,*,2026-06-28 01:09:35,,,,,,
세운대림상가(서측)(구),중구 산림동 207-1,1509377,NS,노상 주차장,1,시간제 주차장,02-2280-8360,900,1900,900.0,1500.0,0.0,0.0,1,유료,500.0,5.0,500.0,5.0,,250000.0,37.5680488733938,126.995368505665,카카오,,,,,,,,,,,,,,,,,,,,,,,,,,,,2026-06-28 01:09:36,대림상가옆 공영주차장,73.7%,평가 없음,0,https://place.map.kakao.com/1870032787,
청계5(동호로_남) 공영주차장(시),중구 방산동 4-47 0,1509662,NS,노상 주차장,1,시간제 주차장,,900,1900,900.0,1500.0,0.0,0.0,1,유료,750.0,5.0,750.0,5.0,,,37.56907094,127.0022251,서울API,1.0,현재~20분이내 연계데이터 존재(현재 주차대수 표현),2.0,2026-06-28 01:16:58,Y,유료,N,야간 미개방,0.0,0.0,Y,유료,0.0,1114015300214.0,750.0,5.0,750.0,5.0,0.0,0.0,0.0,0.0,0.0,*,*,N,*,2026-06-28 01:09:36,,,,,,
이화여고 앞(구),중구 순화동 1-139,1509757,NS,노상 주차장,1,시간제 주차장,02-2280-8360,900,2000,900.0,1600.0,0.0,0.0,1,유료,250.0,5.0,250.0,5.0,,180000.0,37.5651788717649,126.968491155613,카카오,,,,,,,,,,,,,,,,,,,,,,,,,,,,2026-06-28 01:09:37,이화여고앞공영주차장,88.9%,5.0,1,https://place.map.kakao.com/26909635,https://place.map.kakao.com/26909635#review
청계3(창경궁로_남) 공영주차장(시),중구 주교동 123-1 0,1509853,NS,노상 주차장,1,시간제 주차장,,900,1900,900.0,1500.0,0.0,0.0,1,유료,750.0,5.0,750.0,5.0,,,37.56821635,126.99795916,서울API,1.0,현재~20분이내 연계데이터 존재(현재 주차대수 표현),8.0,2026-06-28 01:16:57,Y,유료,N,야간 미개방,0.0,0.0,Y,유료,0.0,1114015200210.0,750.0,5.0,750.0,5.0,0.0,0.0,0.0,0.0,0.0,*,*,N,*,2026-06-28 01:09:37,,,,,,
세운대림상가(동측)(구),중구 산림동 207-2,1509934,NS,노상 주차장,1,시간제 주차장,02-2280-8360,900,1900,900.0,1500.0,0.0,0.0,1,유료,500.0,5.0,500.0,5.0,,250000.0,37.5675235050637,126.99542739784,카카오,,,,,,,,,,,,,,,,,,,,,,,,,,,,2026-06-28 01:09:38,대림상가옆 공영주차장,73.7%,평가 없음,0,https://place.map.kakao.com/1870032787,
청계5(남) 공영주차장(시),중구 을지로6가 17-442 0,1510016,NS,노상 주차장,1,시간제 주차장,,900,1900,900.0,1500.0,0.0,0.0,1,유료,750.0,5.0,750.0,5.0,,,37.56950204,127.00730705,서울API,0.0,미연계중,,,Y,유료,N,야간 미개방,0.0,0.0,Y,유료,0.0,1114014800218.0,750.0,5.0,750.0,5.0,0.0,0.0,0.0,0.0,0.0,*,*,N,*,2026-06-28 01:09:38,,,,,,
당인 유료 주차장(구),마포구 합정동 362-1,1510050,NS,노상 주차장,1,시간제 주차장,,1100,2100,0.0,0.0,0.0,0.0,1,유료,300.0,5.0,300.0,5.0,,120000.0,37.5478264780271,126.917794723098,카카오,,,,,,,,,,,,,,,,,,,,,,,,,,,,2026-06-28 01:09:39,,,조건 불일치 제외,,,
남평화시장(구),중구 신당동 779-0,1510112,NS,노상 주차장,1,시간제 주차장,02-2280-8360,0,2359,0.0,2359.0,0.0,2359.0,1,유료,500.0,5.0,500.0,5.0,,250000.0,37.5689042037082,127.011146524824,카카오,,,,,,,,,,,,,,,,,,,,,,,,,,,,2026-06-28 01:09:40,남평화시장앞공영주차장,84.2%,1.0,2,https://place.map.kakao.com/26879270,https://place.map.kakao.com/26879270#review
맑은내길 노상공영주차장(구),중구 신당동 213-0 0,1510159,NS,노상 주차장,1,시간제 주차장,02)2280-8367,0,2400,0.0,2400.0,0.0,2400.0,1,유료,500.0,5.0,500.0,5.0,,250000.0,,,,,,,,,,,,,,,,,,,,,,,,,,,,,,,2026-06-28 01:09:41,,,,,,
청계5(방산동) 공영주차장(시),중구 방산동 52-1,1510632,NS,노상 주차장,1,시간제 주차장,,900,100,900.0,1500.0,0.0,0.0,1,유료,750.0,5.0,750.0,5.0,,,37.56948233,127.00576235,서울API,0.0,미연계중,,,Y,유료,N,야간 미개방,0.0,0.0,Y,유료,0.0,1114015300219.0,750.0,5.0,750.0,5.0,0.0,0.0,0.0,0.0,0.0,*,*,N,*,2026-06-28 01:09:41,,,,,,
코오롱빌딩 옆(구),중구 태평로1가 31-0,1510726,NS,노상 주차장,1,시간제 주차장,02-2280-8360,900,2100,900.0,1800.0,0.0,0.0,1,유료,600.0,5.0,600.0,5.0,,250000.0,37.566585446882,126.978203640984,카카오,,,,,,,,,,,,,,,,,,,,,,,,,,,,2026-06-28 01:09:41,서울특별시청 주차장,33.3%,2.2,6,https://place.map.kakao.com/1076650730,https://place.map.kakao.com/1076650730#review
조선호텔 앞(구),중구 소공동 87-3 0,1510781,NS,노상 주차장,1,시간제 주차장,02-2280-8360,900,2100,900.0,1800.0,0.0,0.0,1,유료,600.0,5.0,600.0,5.0,,250000.0,,,,,,,,,,,,,,,,,,,,,,,,,,,,,,,2026-06-28 01:09:42,,,,,,
청소년회관 뒤 노상 공영주차장(구),중구 수표동 50-1 0,1511112,NS,노상 주차장,1,시간제 주차장,,800,2200,900.0,2200.0,0.0,0.0,1,유료,500.0,5.0,500.0,5.0,,250000.0,,,,,,,,,,,,,,,,,,,,,,,,,,,,,,,2026-06-28 01:09:43,,,,,,
소파길노상 공영주차장(시),중구 회현동1가 1-19,1511592,NS,노상 주차장,1,시간제 주차장,,900,2100,900.0,2100.0,900.0,2100.0,1,유료,340.0,5.0,340.0,5.0,,,37.55589141,126.98383855,서울API,0.0,미연계중,,,Y,유료,N,야간 미개방,900.0,2100.0,N,무료,0.0,1114012100010.0,340.0,5.0,340.0,5.0,0.0,0.0,0.0,0.0,0.0,*,*,N,*,2026-06-28 01:09:43,,,,,,
국제화재빌딩 옆(구),중구 남대문로5가 145-0,1511639,NS,노상 주차장,1,시간제 주차장,02-2280-8360,900,2000,900.0,1600.0,0.0,0.0,1,유료,500.0,5.0,500.0,5.0,,250000.0,37.5583210635619,126.975923706966,카카오,,,,,,,,,,,,,,,,,,,,,,,,,,,,2026-06-28 01:09:44,국제화재빌딩옆 공영주차장,90.9%,2.3,3,https://place.map.kakao.com/27113495,https://place.map.kakao.com/27113495#review
마른내길 공영주차장(시),중구 인현동1가 87-10,1511816,NS,노상 주차장,1,시간제 주차장,02-2274-2009,900,1900,900.0,1500.0,0.0,0.0,1,유료,680.0,5.0,680.0,5.0,,,37.56432709,126.99346476,서울API,1.0,현재~20분이내 연계데이터 존재(현재 주차대수 표현),11.0,2026-06-28 01:16:54,Y,유료,N,야간 미개방,0.0,0.0,Y,유료,0.0,1114016000212.0,680.0,5.0,680.0,5.0,0.0,0.0,0.0,0.0,0.0,*,*,N,*,2026-06-28 01:09:44,,,,,,
남산파출소 공영주차장(시),중구 회현동1가 1-16,1511971,NS,노상 주차장,1,시간제 주차장,,900,1900,900.0,1500.0,0.0,0.0,1,유료,340.0,5.0,340.0,5.0,,,37.55492478,126.98182033,서울API,0.0,미연계중,,,Y,유료,N,야간 미개방,0.0,0.0,Y,유료,,1114012100009.0,340.0,5.0,340.0,5.0,0.0,0.0,0.0,0.0,0.0,*,*,N,*,2026-06-28 01:09:44,,,,,,
남대문피혁상가 남측(구),중구 봉래동1가 83-0,1512008,NS,노상 주차장,1,시간제 주차장,02-2280-8360,900,2000,900.0,1600.0,0.0,0.0,1,유료,500.0,5.0,500.0,5.0,,250000.0,37.5588126889024,126.972406528578,카카오,,,,,,,,,,,,,,,,,,,,,,,,,,,,2026-06-28 01:09:45,남대문피혁상가남측 공영주차장,92.3%,1.0,1,https://place.map.kakao.com/27220106,https://place.map.kakao.com/27220106#review
남산공원 소파로 관광버스전용 주차장(시),중구 남창동 205-107,1512095,NS,노상 주차장,4,버스전용 주차장,02-2290-6449,0,0,0.0,0.0,0.0,0.0,1,무료,,,,,,,37.55611823,126.97856267,서울API,1.0,현재~20분이내 연계데이터 존재(현재 주차대수 표현),10.0,2026-06-28 01:16:25,N,무료,N,야간 미개방,0.0,0.0,Y,유료,0.0,1114011200187.0,0.0,0.0,0.0,0.0,0.0,0.0,0.0,0.0,0.0,*,*,N,*,2026-06-28 01:09:45,,,,,,
청계8가 공영주차장(시),중구 흥인동 162-1 0,1512125,NS,노상 주차장,1,시간제 주차장,,900,1900,900.0,1500.0,0.0,0.0,1,유료,500.0,5.0,500.0,5.0,,,37.57002852,127.01735719,서울API,1.0,현재~20분이내 연계데이터 존재(현재 주차대수 표현),8.0,2026-06-28 01:16:26,Y,유료,N,야간 미개방,0.0,0.0,Y,유료,0.0,1114016300018.0,500.0,5.0,500.0,5.0,0.0,0.0,0.0,0.0,0.0,*,*,N,*,2026-06-28 01:09:45,,,,,,
뉴국제호텔 앞(구),중구 무교동 18-0,1512147,NS,노상 주차장,1,시간제 주차장,02-2280-8360,900,2100,900.0,1800.0,0.0,0.0,1,유료,600.0,5.0,600.0,5.0,,250000.0,,,,,,,,,,,,,,,,,,,,,,,,,,,,,,,2026-06-28 01:09:46,,,,,,
소파로케이블카앞 관광버스전용 주차장(시),중구 회현동1가 1-15,1512161,NS,노상 주차장,4,버스전용 주차장,02-2290-6449,0,0,0.0,0.0,0.0,0.0,1,무료,,,,,,,37.55519966,126.98374278,서울API,1.0,현재~20분이내 연계데이터 존재(현재 주차대수 표현),1.0,2026-06-28 01:16:26,N,무료,N,야간 미개방,0.0,0.0,Y,유료,0.0,1114012100202.0,0.0,0.0,0.0,0.0,0.0,0.0,0.0,0.0,0.0,*,*,N,*,2026-06-28 01:09:46,,,,,,
진양상가노상공영주차장(구),중구 인현동2가 181-0 0,1512225,NS,노상 주차장,1,시간제 주차장,02)2280-8367,900,1900,900.0,500.0,0.0,0.0,1,유료,500.0,5.0,500.0,5.0,,250000.0,,,,,,,,,,,,,,,,,,,,,,,,,,,,,,,2026-06-28 01:09:46,,,,,,
중곡복개천 공영주차장(B)(구),광진구 중곡동 277-20,1512340,NS,노상 주차장,1,시간제 주차장,02-2049-4535,900,1800,900.0,1500.0,0.0,0.0,1,유료,200.0,5.0,200.0,5.0,,100000.0,,,,,,,,,,,,,,,,,,,,,,,,,,,,,,,2026-06-28 01:09:47,,,,,,
중곡복개천 공영주차장(구),광진구 중곡동 150-196,1512341,NS,노상 주차장,1,시간제 주차장,02-2049-4535,900,1800,900.0,1500.0,0.0,0.0,1,유료,200.0,5.0,200.0,5.0,,100000.0,37.5604083584727,127.085766638305,카카오,,,,,,,,,,,,,,,,,,,,,,,,,,,,2026-06-28 01:09:48,중곡동복개천 노상공영주차장,87.0%,1.0,2,https://place.map.kakao.com/817278687,https://place.map.kakao.com/817278687#review
신성시장길공영노상주차장(구),광진구 중곡동 83-16,1513907,NS,노상 주차장,1,시간제 주차장,02-456-2591,900,1800,900.0,1500.0,0.0,0.0,1,유료,250.0,5.0,250.0,5.0,,100000.0,37.5572102186179,127.090306649131,카카오,,,,,,,,,,,,,,,,,,,,,,,,,,,,2026-06-28 01:09:49,신성시장길 노상공영주차장,83.3%,평가 없음,0,https://place.map.kakao.com/1054350124,
송림 기사식당길 공영주차장(구),광진구 자양동 794-0,1515928,NS,노상 주차장,1,시간제 주차장,02-2049-4540,900,1800,900.0,1500.0,0.0,0.0,1,유료,200.0,5.0,200.0,5.0,,90000.0,37.5377458648809,127.077347915388,카카오,,,,,,,,,,,,,,,,,,,,,,,,,,,,2026-06-28 01:09:50,,,조건 불일치 제외,,,
천호2동제2(구),강동구 천호동 431-2,1521355,NS,노상 주차장,1,시간제 주차장,,900,2000,900.0,2000.0,900.0,2000.0,1,유료,250.0,5.0,,,,,37.5400464440235,127.123221653937,카카오,,,,,,,,,,,,,,,,,,,,,,,,,,,,2026-06-28 01:09:50,,,조건 불일치 제외,,,
주양쇼핑앞 노상주차장(구),강동구 명일동 51-1,1522168,NS,노상 주차장,3,시간제 + 거주자 주차장,,900,1800,0.0,0.0,0.0,0.0,1,유료,250.0,5.0,3000.0,60.0,,,37.5517606054612,127.154475334581,카카오,,,,,,,,,,,,,,,,,,,,,,,,,,,,2026-06-28 01:09:51,주양쇼핑앞노상주차장,100.0%,평가 없음,0,https://place.map.kakao.com/27123046,
주양쇼핑옆 노상주차장(구),강동구 명일동 47-21,1522176,NS,노상 주차장,3,시간제 + 거주자 주차장,,900,1800,0.0,0.0,0.0,0.0,1,유료,250.0,5.0,3000.0,60.0,,,37.5529354600961,127.15305759598,카카오,,,,,,,,,,,,,,,,,,,,,,,,,,,,2026-06-28 01:09:52,주양쇼핑 옆 노상주차장,100.0%,평가 없음,0,https://place.map.kakao.com/20576153,
가산중앞(구),금천구 독산동 300-26,1525590,NS,노상 주차장,1,시간제 주차장,,830,1900,0.0,0.0,0.0,0.0,1,유료,250.0,5.0,,,15000.0,130000.0,37.4691754852834,126.894781581495,카카오,,,,,,,,,,,,,,,,,,,,,,,,,,,,2026-06-28 01:09:53,가산중학교 앞 노상공영주차장,70.0%,평가 없음,0,https://place.map.kakao.com/1202809181,
가산디지털환승(구),금천구 가산동 35-2,1526725,NS,노상 주차장,1,시간제 주차장,,830,1900,0.0,0.0,0.0,0.0,1,유료,150.0,5.0,,,10000.0,65000.0,37.4831403885894,126.882069420028,카카오,,,,,,,,,,,,,,,,,,,,,,,,,,,,2026-06-28 01:09:54,가산디지털단지역환승 노상공영주차장,74.1%,1.0,1,https://place.map.kakao.com/25623464,https://place.map.kakao.com/25623464#review
LG텔레콤(구),금천구 가산동 60-36,1526743,NS,노상 주차장,1,시간제 주차장,,830,1900,1000.0,1800.0,1000.0,1900.0,1,유료,250.0,5.0,,,15000.0,130000.0,37.4746665778928,126.887235391616,카카오,,,,,,,,,,,,,,,,,,,,,,,,,,,,2026-06-28 01:09:54,,,조건 불일치 제외,,,
SJ테크노빌(구),금천구 가산동 60-19,1526747,NS,노상 주차장,1,시간제 주차장,,830,1900,1000.0,1800.0,1000.0,1900.0,1,유료,250.0,5.0,,,15000.0,130000.0,37.4794183788465,126.884590143595,카카오,,,,,,,,,,,,,,,,,,,,,,,,,,,,2026-06-28 01:09:55,SJ테크노빌 주차장,100.0%,평가 없음,0,https://place.map.kakao.com/635737669,
사조냉장-무등실업(구),금천구 독산동 303-2,1527979,NS,노상 주차장,1,시간제 주차장,,830,1900,0.0,0.0,0.0,0.0,1,유료,250.0,5.0,,,15000.0,130000.0,37.4713974966913,126.891330323701,카카오,,,,,,,,,,,,,,,,,,,,,,,,,,,,2026-06-28 01:09:56,,,조건 불일치 제외,,,
방배중앙로 노상공영주차장(구),서초구 방배동 760-3,1530271,NS,노상 주차장,1,시간제 주차장,080-703-6000,1000,2000,0.0,0.0,0.0,0.0,1,유료,250.0,5.0,250.0,5.0,,,37.4949614247933,126.985943904521,카카오,,,,,,,,,,,,,,,,,,,,,,,,,,,,2026-06-28 01:09:57,방배중앙로공영주차장,90.9%,1.0,1,https://place.map.kakao.com/20576813,https://place.map.kakao.com/20576813#review
마장축산물시장 남문(구),성동구 마장동 805-0,1536637,NS,노상 주차장,1,시간제 주차장,,900,1900,900.0,1500.0,0.0,0.0,1,유료,250.0,5.0,250.0,5.0,10000.0,80000.0,37.5670972769293,127.043906780866,카카오,,,,,,,,,,,,,,,,,,,,,,,,,,,,2026-06-28 01:09:58,,,조건 불일치 제외,,,
성수역 3번출구 앞(구),성동구 성수동2가 276-5,1538694,NS,노상 주차장,1,시간제 주차장,02-2204-7970,900,1800,900.0,1500.0,0.0,0.0,1,유료,250.0,5.0,250.0,5.0,10000.0,80000.0,37.5430799943731,127.060640485442,카카오,,,,,,,,,,,,,,,,,,,,,,,,,,,,2026-06-28 01:09:58,성수빌딩 주차장,55.6%,평가 없음,0,https://place.map.kakao.com/636523352,
장한평자동차시장 노상공영주차장(구),성동구 용답동 225-13,1538796,NS,노상 주차장,1,시간제 주차장,,900,1900,900.0,1500.0,0.0,0.0,1,유료,250.0,5.0,250.0,5.0,10000.0,80000.0,37.5619443925418,127.058267606999,카카오,,,,,,,,,,,,,,,,,,,,,,,,,,,,2026-06-28 01:09:59,,,조건 불일치 제외,,,
KT성수분국 앞(구),성동구 성수동2가 277-43,1538943,NS,노상 주차장,1,시간제 주차장,,900,1800,900.0,1500.0,0.0,0.0,1,유료,250.0,5.0,250.0,5.0,10000.0,80000.0,37.5438726245303,127.061297770805,카카오,,,,,,,,,,,,,,,,,,,,,,,,,,,,2026-06-28 01:10:00,아크밸리 지식산업센터 주차장,26.1%,평가 없음,0,https://place.map.kakao.com/464476405,
"신정1,3동 복개(구)",양천구 신정동 1031-0,1538950,NS,노상 주차장,1,시간제 주차장,02-2645-1158,900,1900,900.0,1300.0,0.0,0.0,1,유료,150.0,5.0,300.0,10.0,9000.0,70000.0,,,,,,,,,,,,,,,,,,,,,,,,,,,,,,,2026-06-28 01:10:01,,,,,,
파리공원(구),양천구 목동 906-1,1538954,NS,노상 주차장,1,시간제 주차장,,900,1900,900.0,1500.0,0.0,0.0,1,유료,150.0,5.0,150.0,5.0,,,37.5338268680507,126.876631201142,카카오,,,,,,,,,,,,,,,,,,,,,,,,,,,,2026-06-28 01:10:02,파리공원 공영주차장,87.5%,평가 없음,0,https://place.map.kakao.com/27210344,
신정4동길(구),양천구 신정동 902-0,1538961,NS,노상 주차장,1,시간제 주차장,02-2695-8597,900,1900,900.0,1300.0,0.0,0.0,1,유료,150.0,5.0,300.0,10.0,9000.0,130000.0,,,,,,,,,,,,,,,,,,,,,,,,,,,,,,,2026-06-28 01:10:02,,,,,,
신월1동저지복개2구역(구),양천구 신월동 90-1,1540609,NS,노상 주차장,1,시간제 주차장,02-2698-1386,900,1900,900.0,1300.0,0.0,0.0,1,유료,150.0,5.0,300.0,10.0,9000.0,70000.0,37.536422110511,126.834109822742,카카오,,,,,,,,,,,,,,,,,,,,,,,,,,,,2026-06-28 01:10:03,,,조건 불일치 제외,,,
청계8(남) 공영주차장(시),성동구 상왕십리동 12-47,1540689,NS,노상 주차장,1,시간제 주차장,02-2274-2009,900,1900,900.0,1500.0,0.0,0.0,1,유료,450.0,5.0,450.0,5.0,,150000.0,37.57115425,127.02429757,서울API,1.0,현재~20분이내 연계데이터 존재(현재 주차대수 표현),35.0,2026-06-28 01:16:24,Y,유료,N,야간 미개방,0.0,0.0,Y,유료,150000.0,1120010100349.0,450.0,5.0,450.0,5.0,0.0,0.0,0.0,0.0,0.0,*,*,N,*,2026-06-28 01:10:03,,,,,,
양천경찰서 노상공영주차장(구),양천구 신정동 322-3,1540759,NS,노상 주차장,1,시간제 주차장,02-2644-1386,900,1900,900.0,1500.0,0.0,0.0,1,유료,150.0,5.0,,,9000.0,70000.0,37.5168270926574,126.864983921036,카카오,,,,,,,,,,,,,,,,,,,,,,,,,,,,2026-06-28 01:10:04,양천경찰서 공영주차장,90.9%,평가 없음,0,https://place.map.kakao.com/20577070,
신월5동복개주차장(구),양천구 신월동 53-2,1540766,NS,노상 주차장,1,시간제 주차장,,900,1900,900.0,1300.0,0.0,0.0,1,유료,150.0,5.0,300.0,10.0,,70000.0,37.5390248285097,126.826891751204,카카오,,,,,,,,,,,,,,,,,,,,,,,,,,,,2026-06-28 01:10:05,,,조건 불일치 제외,,,
양천공원옆(구),양천구 신정동 320-3,1540785,NS,노상 주차장,1,시간제 주차장,,900,1900,900.0,1300.0,0.0,0.0,1,유료,150.0,5.0,150.0,5.0,,70000.0,37.5188606474326,126.869057821632,카카오,,,,,,,,,,,,,,,,,,,,,,,,,,,,2026-06-28 01:10:05,양천공원옆 노상공영주차장,80.0%,평가 없음,0,https://place.map.kakao.com/256783345,
양천구청 노상공영주차장(구),양천구 신정동 321-3,1540806,NS,노상 주차장,1,시간제 주차장,02-2644-1386,900,1900,900.0,1500.0,0.0,0.0,1,유료,150.0,5.0,,,9000.0,70000.0,37.517495288354,126.866899692953,카카오,,,,,,,,,,,,,,,,,,,,,,,,,,,,2026-06-28 01:10:06,양천구청 노상공영주차장,100.0%,평가 없음,0,https://place.map.kakao.com/2034035959,
법안정사 공영주차장(구),양천구 목동 907-1,1540868,NS,노상 주차장,1,시간제 주차장,02-2644-1386,900,1900,900.0,1500.0,0.0,0.0,1,유료,150.0,5.0,,,9000.0,100000.0,37.5355086359434,126.877893823768,카카오,,,,,,,,,,,,,,,,,,,,,,,,,,,,2026-06-28 01:10:07,법안정사 공영주차장,100.0%,평가 없음,0,https://place.map.kakao.com/20577030,
KBS별관뒤 노상주차장(구),영등포구 여의도동 4-5,1542854,NS,노상 주차장,1,시간제 주차장,02-2650-1436,900,1900,900.0,1500.0,0.0,0.0,1,유료,500.0,5.0,500.0,5.0,36000.0,200000.0,37.5189343830574,126.928497996598,카카오,,,,,,,,,,,,,,,,,,,,,,,,,,,,2026-06-28 01:10:08,KBS 별관뒤공영주차장,81.8%,평가 없음,0,https://place.map.kakao.com/20512682,
도림고가 노상주차장(구),영등포구 문래동1가 39-1,1542963,NS,노상 주차장,3,시간제 + 거주자 주차장,02-2650-1436,900,1900,900.0,1500.0,0.0,0.0,1,유료,100.0,5.0,200.0,10.0,,50000.0,37.5118296748834,126.897513338004,카카오,,,,,,,,,,,,,,,,,,,,,,,,,,,,2026-06-28 01:10:08,,,조건 불일치 제외,,,
교보생명옆 노상주차장(구),영등포구 당산동2가 21-26,1543091,NS,노상 주차장,3,시간제 + 거주자 주차장,02-2650-1436,900,1900,900.0,1500.0,0.0,0.0,1,유료,250.0,5.0,300.0,10.0,15000.0,100000.0,,,,,,,,,,,,,,,,,,,,,,,,,,,,,,,2026-06-28 01:10:09,,,,,,
교보생명 앞 노상주차장(구),영등포구 양평동1가 71-0,1543175,NS,노상 주차장,3,시간제 + 거주자 주차장,02-2650-1436,900,1900,900.0,1500.0,0.0,0.0,1,유료,250.0,5.0,500.0,10.0,15000.0,100000.0,37.5235069978012,126.891030460369,카카오,,,,,,,,,,,,,,,,,,,,,,,,,,,,2026-06-28 01:10:10,,,조건 불일치 제외,,,
문래동주민센터 앞 노상주차장(구),영등포구 문래동3가 55-16,1543176,NS,노상 주차장,3,시간제 + 거주자 주차장,02-2650-1436,900,1900,900.0,1500.0,0.0,0.0,1,유료,500.0,10.0,500.0,10.0,15000.0,100000.0,37.5176039762221,126.899977594651,카카오,,,,,,,,,,,,,,,,,,,,,,,,,,,,2026-06-28 01:10:11,,,조건 불일치 제외,,,
동문굿모닝탑 앞 노상공영주차장(구),양천구 신정동 324-3,1543204,NS,노상 주차장,1,시간제 주차장,,900,1900,0.0,0.0,0.0,0.0,1,유료,150.0,5.0,,,,70000.0,37.5154586759156,126.861044742535,카카오,,,,,,,,,,,,,,,,,,,,,,,,,,,,2026-06-28 01:10:12,굿모닝탑앞 노상공영주차장,92.3%,평가 없음,0,https://place.map.kakao.com/1501957983,
산업은행앞 노상주차장(구),영등포구 여의도동 16-0,1543279,NS,노상 주차장,1,시간제 주차장,02-2650-1436,900,1900,900.0,1500.0,0.0,0.0,1,유료,500.0,5.0,500.0,5.0,36000.0,200000.0,37.5277715684958,126.922048872456,카카오,,,,,,,,,,,,,,,,,,,,,,,,,,,,2026-06-28 01:10:12,여의도공원 앞2 노상 공영 주차장,50.0%,평가 없음,0,https://place.map.kakao.com/20519172,
MBC방송국뒤 노상주차장(구),영등포구 여의도동 3-1,1543292,NS,노상 주차장,1,시간제 주차장,02-2650-1436,900,1900,900.0,1500.0,0.0,0.0,1,유료,500.0,5.0,1000.0,10.0,36000.0,200000.0,37.5239835570389,126.930843479551,카카오,,,,,,,,,,,,,,,,,,,,,,,,,,,,2026-06-28 01:10:13,,,조건 불일치 제외,,,
KBS본관 앞 노상주차장(구),영등포구 여의도동 1-7,1543307,NS,노상 주차장,1,시간제 주차장,02-2650-1436,900,1900,900.0,1500.0,0.0,0.0,1,유료,500.0,5.0,1000.0,10.0,36000.0,200000.0,37.5264143098253,126.917166599314,카카오,,,,,,,,,,,,,,,,,,,,,,,,,,,,2026-06-28 01:10:14,,,조건 불일치 제외,,,
성애병원 앞 노상주차장(구),영등포구 신길동 451-2,1543332,NS,노상 주차장,1,시간제 주차장,02-2650-1436,900,1900,900.0,1500.0,0.0,0.0,1,유료,250.0,5.0,500.0,10.0,,100000.0,37.5120602709657,126.922780395642,카카오,,,,,,,,,,,,,,,,,,,,,,,,,,,,2026-06-28 01:10:15,성애병원앞 노상공영주차장,90.9%,평가 없음,0,https://place.map.kakao.com/27194241,
삼환아파트 앞 노상주차장(구),영등포구 문래동4가 41-0,1545129,NS,노상 주차장,3,시간제 + 거주자 주차장,02-2650-1436,900,1900,900.0,1500.0,0.0,0.0,1,유료,250.0,5.0,500.0,10.0,15000.0,100000.0,,,,,,,,,,,,,,,,,,,,,,,,,,,,,,,2026-06-28 01:10:16,,,,,,
진주아파트 옆 노상주차장(구),영등포구 여의도동 54-4,1545155,NS,노상 주차장,1,시간제 주차장,02-2650-1436,900,1900,900.0,1500.0,0.0,0.0,1,유료,500.0,5.0,1000.0,10.0,36000.0,200000.0,37.5184272523315,126.9323977505,카카오,,,,,,,,,,,,,,,,,,,,,,,,,,,,2026-06-28 01:10:16,진주아파트옆 노상공영주차장,91.7%,평가 없음,0,https://place.map.kakao.com/1695955179,
대신시장 노상주차장(구),영등포구 신길동 116-15,1545190,NS,노상 주차장,3,시간제 + 거주자 주차장,02-2650-1436,900,1900,900.0,1500.0,0.0,0.0,1,유료,100.0,5.0,200.0,10.0,6000.0,50000.0,37.511076467608,126.917584740113,카카오,,,,,,,,,,,,,,,,,,,,,,,,,,,,2026-06-28 01:10:17,대신시장 노상공영주차장,90.0%,평가 없음,0,https://place.map.kakao.com/20577144,
중소기업중앙회 앞 노상주차장(구),영등포구 여의도동 1-5,1545231,NS,노상 주차장,1,시간제 주차장,02-2650-1436,900,1900,900.0,1500.0,0.0,0.0,1,유료,500.0,5.0,1000.0,10.0,36000.0,200000.0,37.5277501990886,126.920672197789,카카오,,,,,,,,,,,,,,,,,,,,,,,,,,,,2026-06-28 01:10:18,,,조건 불일치 제외,,,
문래1동 공영주차장(시),영등포구 문래동3가 54-12,1545252,NS,노상 주차장,1,시간제 주차장,,900,1900,900.0,1500.0,0.0,0.0,1,유료,130.0,5.0,130.0,5.0,,,37.51355189,126.89726821,서울API,1.0,현재~20분이내 연계데이터 존재(현재 주차대수 표현),1.0,2026-06-28 01:16:20,Y,유료,N,야간 미개방,0.0,0.0,Y,유료,,1156012100056.0,130.0,5.0,130.0,5.0,0.0,0.0,0.0,0.0,0.0,*,*,N,*,2026-06-28 01:10:18,,,,,,
여의도백화점 앞 노상주차장(구),영등포구 여의도동 3-5,1545353,NS,노상 주차장,1,시간제 주차장,02-2650-1436,900,1900,900.0,1500.0,0.0,0.0,1,유료,500.0,5.0,1000.0,10.0,36000.0,200000.0,37.5208798440259,126.927342304902,카카오,,,,,,,,,,,,,,,,,,,,,,,,,,,,2026-06-28 01:10:19,여의도백화점앞 노상공영주차장,92.3%,평가 없음,0,https://place.map.kakao.com/20519174,
경호빌딩앞 노상주차장(구),영등포구 여의도동 25-0,1545366,NS,노상 주차장,1,시간제 주차장,02-2650 -1436,900,1900,900.0,1500.0,0.0,0.0,1,유료,500.0,5.0,1000.0,10.0,36000.0,200000.0,37.5240666732752,126.926009419312,카카오,,,,,,,,,,,,,,,,,,,,,,,,,,,,2026-06-28 01:10:20,,,조건 불일치 제외,,,
교보생명 앞 노상주차장(구),영등포구 당산동2가 71-0,1545399,NS,노상 주차장,3,시간제 + 거주자 주차장,02-2650-1436,900,1900,900.0,1500.0,0.0,0.0,1,유료,250.0,5.0,500.0,10.0,15000.0,100000.0,37.5228779557639,126.892844188827,카카오,,,,,,,,,,,,,,,,,,,,,,,,,,,,2026-06-28 01:10:21,,,조건 불일치 제외,,,
KBS별관옆 노상주차장(구),영등포구 여의도동 4-4,1545408,NS,노상 주차장,1,시간제 주차장,02-2650-1436,900,1900,900.0,1500.0,0.0,0.0,1,유료,500.0,5.0,1000.0,10.0,36000.0,200000.0,37.519841485116,126.929955354985,카카오,,,,,,,,,,,,,,,,,,,,,,,,,,,,2026-06-28 01:10:21,KBS 별관옆공영주차장,81.8%,5.0,1,https://place.map.kakao.com/1307433776,https://place.map.kakao.com/1307433776#review
국민은행앞 노상주차장(구),영등포구 여의도동 15-22,1545410,NS,노상 주차장,1,시간제 주차장,02-2650-1436,900,1900,900.0,1500.0,0.0,0.0,1,유료,500.0,5.0,1000.0,10.0,36000.0,200000.0,37.5283606872029,126.918771492728,카카오,,,,,,,,,,,,,,,,,,,,,,,,,,,,2026-06-28 01:10:22,,,조건 불일치 제외,,,
양남사거리 앞 노상주차장(구),영등포구 당산동2가 30-0,1545468,NS,노상 주차장,3,시간제 + 거주자 주차장,02-2650-1436,900,1900,900.0,1500.0,0.0,0.0,1,유료,250.0,5.0,250.0,5.0,15000.0,100000.0,37.5224397996383,126.891660413153,카카오,,,,,,,,,,,,,,,,,,,,,,,,,,,,2026-06-28 01:10:23,,,조건 불일치 제외,,,
영등포중앙시장 노상주차장(구),영등포구 영등포동7가 5-1,1545494,NS,노상 주차장,3,시간제 + 거주자 주차장,02-2634-1308,900,1900,900.0,1500.0,0.0,0.0,1,유료,100.0,5.0,200.0,10.0,6000.0,50000.0,,,,,,,,,,,,,,,,,,,,,,,,,,,,,,,2026-06-28 01:10:24,,,,,,
벽산디지털밸리앞 노상주차장(구),영등포구 문래동5가 5-0,1545832,NS,노상 주차장,3,시간제 + 거주자 주차장,02-2650-1436,900,1900,900.0,1500.0,0.0,0.0,1,유료,500.0,5.0,500.0,10.0,15000.0,100000.0,37.515137038791,126.886810757084,카카오,,,,,,,,,,,,,,,,,,,,,,,,,,,,2026-06-28 01:10:24,,,조건 불일치 제외,,,
경남아파트 앞 노상주차장(구),영등포구 당산동3가 56-0,1548692,NS,노상 주차장,3,시간제 + 거주자 주차장,02-2650-1436,900,1900,900.0,1500.0,0.0,0.0,1,유료,100.0,5.0,200.0,10.0,6000.0,50000.0,37.5244709938705,126.897902850625,카카오,,,,,,,,,,,,,,,,,,,,,,,,,,,,2026-06-28 01:10:25,,,조건 불일치 제외,,,
이촌로54길(구),용산구 이촌동 302-31,1549619,NS,노상 주차장,1,시간제 주차장,02-749-5314,1100,2100,1100.0,1700.0,0.0,0.0,1,유료,250.0,5.0,250.0,5.0,,,37.5199381699349,126.969246372193,카카오,,,,,,,,,,,,,,,,,,,,,,,,,,,,2026-06-28 01:10:26,,,조건 불일치 제외,,,
장충단로(한남광장) 관광버스전용 주차장(시),용산구 한남동 9-19,1549662,NS,노상 주차장,4,버스전용 주차장,02-2290-6449,0,0,0.0,0.0,0.0,0.0,1,무료,,,,,,,37.54735334,127.00265619,서울API,1.0,현재~20분이내 연계데이터 존재(현재 주차대수 표현),3.0,2026-06-28 01:16:26,N,무료,N,야간 미개방,0.0,0.0,Y,유료,0.0,1117013100002.0,0.0,0.0,0.0,0.0,0.0,0.0,0.0,0.0,0.0,*,*,N,*,2026-06-28 01:10:26,,,,,,
경남아파트 앞 노상주차장(구),영등포구 영등포동7가 56-0,1551329,NS,노상 주차장,3,시간제 + 거주자 주차장,02-2650-1436,900,1900,900.0,1500.0,0.0,0.0,1,유료,100.0,5.0,200.0,10.0,6000.0,50000.0,,,,,,,,,,,,,,,,,,,,,,,,,,,,,,,2026-06-28 01:10:27,,,,,,
신흥증권앞 노상주차장(구),영등포구 여의도동 2-4,1551423,NS,노상 주차장,1,시간제 주차장,02-2650-1436,900,1900,900.0,1500.0,0.0,0.0,1,유료,500.0,5.0,500.0,5.0,36000.0,200000.0,37.5241919125789,126.926877425348,카카오,,,,,,,,,,,,,,,,,,,,,,,,,,,,2026-06-28 01:10:28,월드비전앞 노상 공영 주차장,54.5%,1.0,1,https://place.map.kakao.com/20518789,https://place.map.kakao.com/20518789#review
경도상가앞 노상주차장(구),영등포구 여의도동 44-0,1551803,NS,노상 주차장,1,시간제 주차장,02-2650-1436,900,1900,900.0,1500.0,0.0,0.0,1,유료,500.0,5.0,1000.0,10.0,36000.0,200000.0,37.5210293614787,126.929642482167,카카오,,,,,,,,,,,,,,,,,,,,,,,,,,,,2026-06-28 01:10:29,,,조건 불일치 제외,,,
상봉복개(구),중랑구 상봉동 399-4,1552993,NS,노상 주차장,1,시간제 주차장,02-2272-8821,900,1900,900.0,1500.0,0.0,0.0,1,유료,400.0,5.0,400.0,5.0,,,37.5941799276321,127.088010574621,카카오,,,,,,,,,,,,,,,,,,,,,,,,,,,,2026-06-28 01:10:29,,,조건 불일치 제외,,,
묵중안공영주차장(구),중랑구 묵동 250-39,1552996,NS,노상 주차장,3,시간제 + 거주자 주차장,,900,1900,900.0,1500.0,0.0,0.0,1,유료,250.0,5.0,250.0,5.0,,,37.6053653356947,127.077242907896,카카오,,,,,,,,,,,,,,,,,,,,,,,,,,,,2026-06-28 01:10:30,,,조건 불일치 제외,,,
묵중안공영주차장(구),중랑구 중화동 250-39,1554685,NS,노상 주차장,3,시간제 + 거주자 주차장,,900,1900,900.0,1500.0,0.0,0.0,1,유료,250.0,5.0,250.0,5.0,,,,,,,,,,,,,,,,,,,,,,,,,,,,,,,,,2026-06-28 01:10:31,,,,,,
중화동(구),중랑구 중화동 61-2,1554862,NS,노상 주차장,1,시간제 주차장,,900,1900,900.0,1500.0,0.0,0.0,1,유료,100.0,5.0,100.0,5.0,,,37.5951131967923,127.072177684662,카카오,,,,,,,,,,,,,,,,,,,,,,,,,,,,2026-06-28 01:10:32,중화동공영주차장,85.7%,평가 없음,0,https://place.map.kakao.com/27213529,
우림시장공영주차장(구),중랑구 망우동 486-10,1554869,NS,노상 주차장,1,시간제 주차장,02-436-3598,900,1900,900.0,1500.0,0.0,0.0,1,유료,250.0,5.0,250.0,5.0,,,37.599304830742,127.1001359785,카카오,,,,,,,,,,,,,,,,,,,,,,,,,,,,2026-06-28 01:10:32,,,조건 불일치 제외,,,
나들목공영주차장(구),중랑구 중화동 304-36,1554895,NS,노상 주차장,3,시간제 + 거주자 주차장,02-438-7210,900,1900,900.0,1500.0,0.0,0.0,1,유료,250.0,5.0,250.0,5.0,,,37.5995503302417,127.078493860957,카카오,,,,,,,,,,,,,,,,,,,,,,,,,,,,2026-06-28 01:10:33,,,조건 불일치 제외,,,
동부갯 공영주차장(구),중랑구 망우동 487-1,1554946,NS,노상 주차장,1,시간제 주차장,02-438-7209,900,1900,900.0,1500.0,0.0,0.0,1,유료,250.0,5.0,250.0,5.0,,,37.6001624491523,127.09964441627,카카오,,,,,,,,,,,,,,,,,,,,,,,,,,,,2026-06-28 01:10:34,동부갯공영주차장,100.0%,평가 없음,0,https://place.map.kakao.com/297962955,
매화공영주차장(구),중랑구 상봉동 85-41,1556710,NS,노상 주차장,1,시간제 주차장,02-438-7210,900,1900,900.0,1500.0,0.0,0.0,1,유료,250.0,5.0,250.0,5.0,,,37.5937209147803,127.090457301253,카카오,,,,,,,,,,,,,,,,,,,,,,,,,,,,2026-06-28 01:10:35,매화노상공영주차장,87.5%,평가 없음,0,https://place.map.kakao.com/1807903525,
맛솜씨공영주차장(구),중랑구 망우동 490-21,1556726,NS,노상 주차장,1,시간제 주차장,,900,1900,900.0,1500.0,0.0,0.0,1,유료,250.0,5.0,250.0,5.0,,,37.5986213585633,127.097202973447,카카오,,,,,,,,,,,,,,,,,,,,,,,,,,,,2026-06-28 01:10:35,,,조건 불일치 제외,,,
주막거리공영주차장(구),중랑구 상봉동 127-19,1556767,NS,노상 주차장,1,시간제 주차장,02-438-7210,900,1900,900.0,1500.0,0.0,0.0,1,유료,250.0,5.0,250.0,5.0,,,37.5929445757743,127.07990739382,카카오,,,,,,,,,,,,,,,,,,,,,,,,,,,,2026-06-28 01:10:36,,,조건 불일치 제외,,,
양남사거리 앞 노상주차장(구),영등포구 양평동1가 30-0,1561583,NS,노상 주차장,3,시간제 + 거주자 주차장,02-2650-1436,900,1900,900.0,1500.0,0.0,0.0,1,유료,250.0,5.0,250.0,5.0,15000.0,100000.0,37.5228679317335,126.89114417454,카카오,,,,,,,,,,,,,,,,,,,,,,,,,,,,2026-06-28 01:10:37,,,조건 불일치 제외,,,
대림역 공영주차장(시),영등포구 대림동 808-24,1562029,NS,노상 주차장,1,시간제 주차장,,900,1900,900.0,1500.0,0.0,2400.0,1,유료,400.0,5.0,400.0,5.0,,,37.49246098,126.89562459,서울API,1.0,현재~20분이내 연계데이터 존재(현재 주차대수 표현),2.0,2026-06-28 01:16:20,Y,유료,N,야간 미개방,0.0,2400.0,N,무료,0.0,1156013300113.0,400.0,5.0,400.0,5.0,0.0,0.0,0.0,0.0,0.0,*,*,N,*,2026-06-28 01:10:38,,,,,,
여의서로 공영주차장(시),영등포구 여의도동 8-1,1563914,NS,노상 주차장,1,시간제 주차장,,900,1900,900.0,1500.0,0.0,0.0,1,유료,280.0,5.0,280.0,5.0,,120000.0,37.53306819,126.91754289,서울API,1.0,현재~20분이내 연계데이터 존재(현재 주차대수 표현),38.0,2026-06-28 01:16:21,Y,유료,N,야간 미개방,0.0,0.0,Y,유료,120000.0,1156011000122.0,280.0,5.0,280.0,5.0,0.0,0.0,0.0,0.0,0.0,*,*,N,*,2026-06-28 01:10:38,,,,,,
동아빌딩앞 노상주차장(구),영등포구 여의도동 14-0,1564068,NS,노상 주차장,1,시간제 주차장,02-2650-1436,900,1900,900.0,1500.0,0.0,0.0,1,유료,500.0,5.0,1000.0,10.0,36000.0,200000.0,37.5302996530224,126.919577176287,카카오,,,,,,,,,,,,,,,,,,,,,,,,,,,,2026-06-28 01:10:39,,,조건 불일치 제외,,,
렉싱턴호텔뒤 노상주차장(구),영등포구 여의도동 13-0,1564262,NS,노상 주차장,1,시간제 주차장,02-2650-1436,900,1900,900.0,1500.0,0.0,0.0,1,유료,500.0,5.0,1000.0,10.0,36000.0,200000.0,37.5309560903106,126.921132661482,카카오,,,,,,,,,,,,,,,,,,,,,,,,,,,,2026-06-28 01:10:39,,,조건 불일치 제외,,,
롯데캐슬앞 노상주차장(구),영등포구 여의도동 36-0,1564328,NS,노상 주차장,1,시간제 주차장,02-2650-1436,900,1900,900.0,1500.0,0.0,0.0,1,유료,500.0,5.0,1000.0,10.0,36000.0,200000.0,37.5202422355855,126.926374275404,카카오,,,,,,,,,,,,,,,,,,,,,,,,,,,,2026-06-28 01:10:40,,,조건 불일치 제외,,,
연희사러가쇼핑센터앞(구),서대문구 연희동 130-12,1564466,NS,노상 주차장,1,시간제 주차장,,900,1900,900.0,1500.0,0.0,0.0,1,유료,250.0,5.0,,,,,37.5675775054047,126.929046687551,카카오,,,,,,,,,,,,,,,,,,,,,,,,,,,,2026-06-28 01:10:41,사러가쇼핑센터 주차장,87.0%,3.5,2,https://place.map.kakao.com/1167596917,https://place.map.kakao.com/1167596917#review
대치유수지(구),강남구 대치동 78-29,1565220,NS,노상 주차장,1,시간제 주차장,,900,1900,0.0,0.0,0.0,0.0,1,유료,200.0,5.0,200.0,5.0,16000.0,80000.0,37.5051780448826,127.068283474899,카카오,,,,,,,,,,,,,,,,,,,,,,,,,,,,2026-06-28 01:10:42,대치유수지체육공원 공영주차장,72.7%,2.0,1,https://place.map.kakao.com/18984083,https://place.map.kakao.com/18984083#review
일원동맛의거리(구),강남구 일원동 709-9,1566024,NS,노상 주차장,1,시간제 주차장,,1100,2100,0.0,0.0,0.0,0.0,1,유료,100.0,5.0,100.0,5.0,,50000.0,37.4910646642765,127.087328700731,카카오,,,,,,,,,,,,,,,,,,,,,,,,,,,,2026-06-28 01:10:43,,,조건 불일치 제외,,,
거주자우선주차장(구),강동구 성내동 540-0,1567464,NS,노상 주차장,3,시간제 + 거주자 주차장,,900,1900,900.0,1500.0,0.0,0.0,1,유료,250.0,5.0,250.0,5.0,,100000.0,37.5300981049478,127.123686336418,카카오,,,,,,,,,,,,,,,,,,,,,,,,,,,,2026-06-28 01:10:43,,,조건 불일치 제외,,,
유진상가앞(구),서대문구 홍제동 294-46,1567512,NS,노상 주차장,1,시간제 주차장,,1000,1900,1000.0,1500.0,0.0,0.0,1,유료,250.0,5.0,,,,,37.5911808459468,126.941914096094,카카오,,,,,,,,,,,,,,,,,,,,,,,,,,,,2026-06-28 01:10:44,서대문구 자전거주차장,33.3%,3.0,2,https://place.map.kakao.com/925368254,https://place.map.kakao.com/925368254#review
위례성길(방이습지)(구),송파구 방이동 452-4,1567642,NS,노상 주차장,1,시간제 주차장,,900,1800,0.0,0.0,0.0,0.0,1,유료,150.0,5.0,,,,80000.0,37.50880287522,127.135147640737,카카오,,,,,,,,,,,,,,,,,,,,,,,,,,,,2026-06-28 01:10:45,,,조건 불일치 제외,,,
봉상시길(구),송파구 잠실동 193-11,1568427,NS,노상 주차장,1,시간제 주차장,,900,2100,900.0,2100.0,900.0,2100.0,1,유료,250.0,5.0,,,,,37.5099441136761,127.080413420849,카카오,,,,,,,,,,,,,,,,,,,,,,,,,,,,2026-06-28 01:10:46,봉상시길A 공영주차장,82.4%,평가 없음,0,https://place.map.kakao.com/567381154,
교통공원길(구),송파구 신천동 10-2,1568618,NS,노상 주차장,1,시간제 주차장,,900,2100,900.0,2100.0,900.0,2100.0,1,유료,250.0,5.0,,,,,37.5162244306375,127.103599153394,카카오,,,,,,,,,,,,,,,,,,,,,,,,,,,,2026-06-28 01:10:47,교통공원길 노상 공영주차장,80.0%,평가 없음,0,https://place.map.kakao.com/278191827,
동작갯마을(구),동작구 동작동 102-65,1568620,NS,노상 주차장,1,시간제 주차장,,900,1900,900.0,1900.0,0.0,0.0,1,유료,150.0,5.0,,,35000.0,100000.0,37.4959878595743,126.982617019684,카카오,,,,,,,,,,,,,,,,,,,,,,,,,,,,2026-06-28 01:10:47,동작갯마을 공영주차장 전기차충전소,66.7%,평가 없음,0,https://place.map.kakao.com/169947391,
테헤란로26길(구),강남구 역삼동 803-8,1568792,NS,노상 주차장,1,시간제 주차장,,900,1900,0.0,0.0,0.0,0.0,1,유료,400.0,5.0,400.0,5.0,,150000.0,37.4992563138183,127.036213311874,카카오,,,,,,,,,,,,,,,,,,,,,,,,,,,,2026-06-28 01:10:48,테헤란로 26길 공영주차장,90.9%,평가 없음,0,https://place.map.kakao.com/17772267,
은마아파트(구),강남구 대치동 316-0,1568804,NS,노상 주차장,1,시간제 주차장,,900,1900,0.0,0.0,0.0,0.0,1,유료,300.0,5.0,300.0,5.0,,120000.0,37.4974180026259,127.065327020175,카카오,,,,,,,,,,,,,,,,,,,,,,,,,,,,2026-06-28 01:10:49,,,조건 불일치 제외,,,
위례성길(구),송파구 방이동 18-0,1569863,NS,노상 주차장,1,시간제 주차장,,900,2100,900.0,2100.0,900.0,2100.0,1,유료,250.0,5.0,,,,,37.5149488221386,127.119497899914,카카오,,,,,,,,,,,,,,,,,,,,,,,,,,,,2026-06-28 01:10:50,위례성길 공영주차장,87.5%,3.0,1,https://place.map.kakao.com/573523943,https://place.map.kakao.com/573523943#review
로데오길(구),송파구 문정동 3-2,1569866,NS,노상 주차장,1,시간제 주차장,,1100,2000,1100.0,2000.0,1100.0,2000.0,1,유료,150.0,5.0,,,,,37.4911037217194,127.12566258071,카카오,,,,,,,,,,,,,,,,,,,,,,,,,,,,2026-06-28 01:10:51,로데오길노상공영주차장,77.8%,평가 없음,0,https://place.map.kakao.com/20576986,
주공12단지상가뒤(구),노원구 상계동 647-1,1570020,NS,노상 주차장,1,시간제 주차장,,900,1900,900.0,1800.0,900.0,1800.0,1,유료,250.0,5.0,,,33000.0,150000.0,37.666785603208,127.057849856865,카카오,,,,,,,,,,,,,,,,,,,,,,,,,,,,2026-06-28 01:10:51,주공12단지상가 뒤 노상공영 주차장,85.7%,평가 없음,0,https://place.map.kakao.com/25612879,
논현로131길(구),강남구 논현동 279-99,1570038,NS,노상 주차장,1,시간제 주차장,,900,1900,0.0,0.0,0.0,0.0,1,유료,400.0,5.0,400.0,5.0,,150000.0,37.5142631379849,127.0288551039,카카오,,,,,,,,,,,,,,,,,,,,,,,,,,,,2026-06-28 01:10:52,노상주차장 논현든손길,30.0%,평가 없음,0,https://place.map.kakao.com/27109144,
인왕시장앞(구),서대문구 홍제동 295-3,1570296,NS,노상 주차장,1,시간제 주차장,,1000,1900,1000.0,1500.0,0.0,0.0,1,유료,250.0,5.0,,,,,37.5915470994381,126.943964709969,카카오,,,,,,,,,,,,,,,,,,,,,,,,,,,,2026-06-28 01:10:53,인왕시장공영노상주차장,73.7%,1.0,2,https://place.map.kakao.com/20576800,https://place.map.kakao.com/20576800#review
주공3단지상가주변(구),노원구 상계동 736-0,1570842,NS,노상 주차장,1,시간제 주차장,,900,1900,900.0,1800.0,900.0,1800.0,1,유료,250.0,5.0,,,33000.0,150000.0,37.6531620931,127.05919914426,카카오,,,,,,,,,,,,,,,,,,,,,,,,,,,,2026-06-28 01:10:54,,,조건 불일치 제외,,,
주공11단지상가뒤(구),노원구 상계동 652-4,1570843,NS,노상 주차장,1,시간제 주차장,,900,1900,900.0,1800.0,900.0,1800.0,1,유료,250.0,5.0,,,33000.0,150000.0,37.665083125952,127.057077826279,카카오,,,,,,,,,,,,,,,,,,,,,,,,,,,,2026-06-28 01:10:55,11단지A동상가 유료주차장,72.0%,평가 없음,0,https://place.map.kakao.com/1687566611,
노원세무서 앞 공영주차장(구),도봉구 창동 15-0,1575014,NS,노상 주차장,1,시간제 주차장,,800,1900,800.0,1900.0,800.0,1900.0,1,유료,250.0,5.0,,,,,37.6532829889508,127.051349448756,카카오,,,,,,,,,,,,,,,,,,,,,,,,,,,,2026-06-28 01:10:55,노원세무서앞 공영주차장,100.0%,평가 없음,0,https://place.map.kakao.com/1812248889,
방학동 월드상가 앞 주차장(구),도봉구 방학동 717-0,1575186,NS,노상 주차장,1,시간제 주차장,,900,1800,900.0,1800.0,900.0,1800.0,1,유료,250.0,5.0,,,,,37.6679144363154,127.044582015338,카카오,,,,,,,,,,,,,,,,,,,,,,,,,,,,2026-06-28 01:10:56,투루파킹 도봉롯데캐슬상가 주차장,38.5%,평가 없음,0,https://place.map.kakao.com/1119579710,
남부여성발전센터 공영주차장(시),금천구 시흥동 139-2,1575315,NW,노외 주차장,1,시간제 주차장,02-1588-1054,0,2400,0.0,2400.0,0.0,2400.0,128,유료,120.0,5.0,120.0,5.0,,80000.0,37.462917,126.905718,서울API,1.0,현재~20분이내 연계데이터 존재(현재 주차대수 표현),115.0,2026-06-28 01:16:54,Y,유료,N,야간 미개방,0.0,2400.0,N,무료,80000.0,,120.0,5.0,120.0,5.0,0.0,0.0,0.0,0.0,0.0,*,*,N,*,2026-06-28 01:10:56,,,,,,
신성시장길노상공영주차장(구),광진구 구의동 558-11,1575375,NS,노상 주차장,1,시간제 주차장,02-456-2591,900,1800,900.0,1500.0,0.0,0.0,1,유료,250.0,5.0,250.0,5.0,,100000.0,37.5548977135453,127.093667571274,카카오,,,,,,,,,,,,,,,,,,,,,,,,,,,,2026-06-28 01:10:57,,,조건 불일치 제외,,,
신방화역 공영주차장(시),강서구 마곡동 739-0,1575751,NW,노외 주차장,1,시간제 주차장,02-3405-4581,0,2400,0.0,2400.0,0.0,2400.0,198,유료,290.0,5.0,290.0,5.0,,109000.0,37.56706812,126.81757628,서울API,1.0,현재~20분이내 연계데이터 존재(현재 주차대수 표현),101.0,2026-06-28 01:16:54,Y,유료,N,야간 미개방,0.0,2400.0,N,무료,109000.0,,290.0,5.0,290.0,5.0,0.0,0.0,0.0,0.0,0.0,*,*,N,*,2026-06-28 01:10:57,,,,,,
송림 기사식당길 공영주차장(구),광진구 자양동 227-1,1575781,NS,노상 주차장,1,시간제 주차장,,900,1800,900.0,1500.0,0.0,0.0,1,유료,200.0,5.0,200.0,5.0,,90000.0,37.53789594634,127.076834383933,카카오,,,,,,,,,,,,,,,,,,,,,,,,,,,,2026-06-28 01:10:58,,,조건 불일치 제외,,,
신성시장길공영노상주차장(구),광진구 중곡동 88-21,1575817,NS,노상 주차장,1,시간제 주차장,02-456-2591,900,1800,900.0,1500.0,0.0,2400.0,1,유료,250.0,5.0,250.0,5.0,,100000.0,37.5567766681346,127.090881622489,카카오,,,,,,,,,,,,,,,,,,,,,,,,,,,,2026-06-28 01:10:58,,,조건 불일치 제외,,,
송림기사식당길(B) 공영주차장(구),광진구 자양동 601-9,1575861,NS,노상 주차장,1,시간제 주차장,02-2049-4540,900,1800,900.0,1500.0,0.0,0.0,1,유료,200.0,5.0,200.0,5.0,,90000.0,37.5319525135351,127.07555039482,카카오,,,,,,,,,,,,,,,,,,,,,,,,,,,,2026-06-28 01:10:59,,,조건 불일치 제외,,,
송림기사식당길(B) 공영주차장(구),광진구 자양동 584-3,1575869,NS,노상 주차장,1,시간제 주차장,02-2049-4540,900,1800,900.0,1500.0,0.0,0.0,1,유료,200.0,5.0,200.0,5.0,,,37.5315281672079,127.07494524855,카카오,,,,,,,,,,,,,,,,,,,,,,,,,,,,2026-06-28 01:11:00,,,조건 불일치 제외,,,
진흥로 공영주차장(시),은평구 역촌동 41-8,1576126,NS,노상 주차장,1,시간제 주차장,,900,1800,0.0,0.0,0.0,0.0,1,유료,200.0,5.0,200.0,5.0,,140000.0,37.60100188,126.9198952,서울API,1.0,현재~20분이내 연계데이터 존재(현재 주차대수 표현),8.0,2026-06-28 01:16:56,Y,유료,N,야간 미개방,0.0,0.0,Y,유료,140000.0,1138010800018.0,200.0,5.0,200.0,5.0,0.0,0.0,0.0,0.0,0.0,*,*,N,*,2026-06-28 01:11:00,,,,,,
온수역(남) 공영주차장(시),구로구 온수동 51-26,1576208,NS,노상 주차장,1,시간제 주차장,,900,1900,900.0,1500.0,0.0,0.0,1,유료,290.0,5.0,290.0,5.0,,120000.0,37.49179195,126.82415293,서울API,1.0,현재~20분이내 연계데이터 존재(현재 주차대수 표현),10.0,2026-06-28 01:16:59,Y,유료,N,야간 미개방,0.0,0.0,Y,유료,120000.0,1153011000007.0,290.0,5.0,290.0,5.0,0.0,0.0,0.0,0.0,0.0,*,*,N,*,2026-06-28 01:11:00,,,,,,
옥수역 공영주차장(시),성동구 옥수동 401-1,1576313,NS,노상 주차장,1,시간제 주차장,,900,1900,900.0,1500.0,0.0,0.0,1,유료,290.0,5.0,290.0,5.0,,105000.0,37.5424275,127.0172295,서울API,1.0,현재~20분이내 연계데이터 존재(현재 주차대수 표현),1.0,2026-06-28 01:16:23,Y,유료,N,야간 미개방,0.0,0.0,Y,유료,105000.0,1120011300107.0,290.0,5.0,290.0,5.0,0.0,0.0,0.0,0.0,0.0,*,*,N,*,2026-06-28 01:11:00,,,,,,
돈화문로 공영주차장(시),중구 을지로3가 296-24,1576347,NS,노상 주차장,1,시간제 주차장,02-2274-2009,900,1900,900.0,1500.0,0.0,0.0,1,유료,810.0,5.0,810.0,5.0,,,37.563031,126.992948,서울API,1.0,현재~20분이내 연계데이터 존재(현재 주차대수 표현),26.0,2026-06-28 01:16:54,Y,유료,N,야간 미개방,0.0,0.0,Y,유료,0.0,1114015500048.0,810.0,5.0,810.0,5.0,0.0,0.0,0.0,0.0,0.0,*,*,N,*,2026-06-28 01:11:00,,,,,,
도봉로 15길 공영주차장(시),강북구 미아동 458-7,1576514,NS,노상 주차장,1,시간제 주차장,,900,1800,0.0,0.0,0.0,0.0,1,유료,200.0,5.0,200.0,5.0,,90000.0,37.61682032,127.02826641,서울API,1.0,현재~20분이내 연계데이터 존재(현재 주차대수 표현),10.0,2026-06-28 01:16:55,Y,유료,N,야간 미개방,0.0,0.0,Y,유료,90000.0,1130510100055.0,200.0,5.0,200.0,5.0,0.0,0.0,0.0,0.0,0.0,*,*,N,*,2026-06-28 01:11:00,,,,,,
원효대교 남단 공영주차장(시),영등포구 여의도동 5-0,1576530,NS,노상 주차장,1,시간제 주차장,,0,2400,0.0,2400.0,0.0,2400.0,1,유료,280.0,5.0,280.0,5.0,,100000.0,37.52222771,126.93679715,서울API,1.0,현재~20분이내 연계데이터 존재(현재 주차대수 표현),7.0,2026-06-28 01:16:21,Y,유료,N,야간 미개방,0.0,2400.0,N,무료,100000.0,1156011000135.0,280.0,5.0,280.0,5.0,0.0,0.0,0.0,0.0,0.0,*,*,N,*,2026-06-28 01:11:00,,,,,,
가양라이품 공영주차장(시),강서구 가양동 1457-1,1576703,NW,노외 주차장,1,시간제 주차장,02-2290-6144,0,2400,0.0,2400.0,0.0,2400.0,38,유료,200.0,5.0,200.0,5.0,,109000.0,37.57155732,126.84165292,서울API,1.0,현재~20분이내 연계데이터 존재(현재 주차대수 표현),2.0,2026-06-28 01:16:54,Y,유료,N,야간 미개방,0.0,2400.0,N,무료,109000.0,,200.0,5.0,200.0,5.0,0.0,0.0,0.0,0.0,0.0,*,*,N,*,2026-06-28 01:11:00,,,,,,
신영시장 공동주차장(구),양천구 신월동 114-16,1576989,NW,노외 주차장,1,시간제 주차장,02-2644-1386,900,1900,900.0,1900.0,900.0,1900.0,23,유료,150.0,5.0,150.0,5.0,9000.0,50000.0,37.5330152054102,126.836208070825,카카오,,,,,,,,,,,,,,,,,,,,,,,,,,,,2026-06-28 01:11:01,신영시장 고객주차장,77.8%,3.0,4,https://place.map.kakao.com/20530138,https://place.map.kakao.com/20530138#review
마른내로 공영주차장(시),중구 오장동 69-3,1577094,NS,노상 주차장,1,시간제 주차장,02-2273-0006,900,1800,0.0,0.0,0.0,0.0,1,유료,620.0,5.0,620.0,5.0,,180000.0,37.56451381,126.99952362,서울API,1.0,현재~20분이내 연계데이터 존재(현재 주차대수 표현),9.0,2026-06-28 01:16:23,Y,유료,N,야간 미개방,0.0,0.0,Y,유료,180000.0,1114015400221.0,620.0,5.0,620.0,5.0,0.0,0.0,0.0,0.0,0.0,*,*,N,*,2026-06-28 01:11:01,,,,,,
중계4동 임시공영주차장(구),노원구 중계동 606-2,1577275,NW,노외 주차장,1,시간제 주차장,,1000,1900,1000.0,1800.0,0.0,0.0,39,유료,150.0,5.0,150.0,5.0,8100.0,100000.0,37.6585557456369,127.073727870358,카카오,,,,,,,,,,,,,,,,,,,,,,,,,,,,2026-06-28 01:11:02,,,조건 불일치 제외,,,
반포4동 주민센터 공영주차장(구),서초구 반포동 74-7,1577279,NW,노외 주차장,1,시간제 주차장,070-7119-3701,0,2400,0.0,2400.0,0.0,2400.0,51,유료,150.0,5.0,150.0,5.0,,120000.0,37.4974754385833,127.000309968217,카카오,,,,,,,,,,,,,,,,,,,,,,,,,,,,2026-06-28 01:11:03,쏘카존 반포4동주민센터 공영주차장(GS파크),74.3%,평가 없음,0,https://place.map.kakao.com/539335948,
영등포구청환승주차장(구),영등포구 당산동3가 370-4,1577281,NW,노외 주차장,1,시간제 주차장,02-2677-1401,0,2400,0.0,2400.0,0.0,2400.0,66,유료,100.0,5.0,100.0,5.0,,84000.0,37.5245767395619,126.895598882061,카카오,,,,,,,,,,,,,,,,,,,,,,,,,,,,2026-06-28 01:11:03,영등포구청 환승공영주차장,90.9%,5.0,1,https://place.map.kakao.com/9255018,https://place.map.kakao.com/9255018#review
정릉천변 공영주차장(구),동대문구 제기동 1159-0,1577613,NS,노상 주차장,1,시간제 주차장,,900,1900,900.0,1500.0,0.0,0.0,1,유료,500.0,10.0,500.0,10.0,36000.0,120000.0,37.5855600929353,127.036501217044,카카오,,,,,,,,,,,,,,,,,,,,,,,,,,,,2026-06-28 01:11:04,정릉천변 공영주차장,100.0%,평가 없음,0,https://place.map.kakao.com/20576652,
정화여상 노상(구),동대문구 제기동 855-0,1577690,NS,노상 주차장,1,시간제 주차장,,900,1900,900.0,1500.0,0.0,0.0,1,유료,500.0,10.0,500.0,10.0,36000.0,120000.0,37.5848492092678,127.041157972934,카카오,,,,,,,,,,,,,,,,,,,,,,,,,,,,2026-06-28 01:11:05,,,조건 불일치 제외,,,
동서시장 식품 공영주차장(구),동대문구 제기동 854-1,1577864,NS,노상 주차장,1,시간제 주차장,,900,1900,900.0,1500.0,0.0,0.0,1,유료,300.0,10.0,300.0,10.0,36000.0,,37.5829751051539,127.040486821521,카카오,,,,,,,,,,,,,,,,,,,,,,,,,,,,2026-06-28 01:11:06,,,조건 불일치 제외,,,
장안보성연립노상주차장(구),동대문구 장안동 427-4,1578559,NS,노상 주차장,1,시간제 주차장,,900,1900,900.0,1500.0,0.0,0.0,1,유료,500.0,10.0,500.0,10.0,36000.0,120000.0,37.5661705073475,127.065825962346,카카오,,,,,,,,,,,,,,,,,,,,,,,,,,,,2026-06-28 01:11:07,장안보성연립 노상공영주차장,91.7%,평가 없음,0,https://place.map.kakao.com/1873327575,
동서시장 과일채소부 공영주차장(구),동대문구 제기동 849-0,1578994,NS,노상 주차장,1,시간제 주차장,02-962-1650,900,1900,900.0,1500.0,0.0,0.0,1,유료,300.0,10.0,300.0,10.0,36000.0,,37.5806647558841,127.040549761348,카카오,,,,,,,,,,,,,,,,,,,,,,,,,,,,2026-06-28 01:11:07,동서시장과일채소부 공영주차장,100.0%,평가 없음,0,https://place.map.kakao.com/1063778994,
답십리 부품상가 노상(구),동대문구 답십리동 952-2,1579054,NS,노상 주차장,1,시간제 주차장,,900,1900,900.0,1500.0,0.0,0.0,1,유료,500.0,10.0,500.0,10.0,36000.0,120000.0,37.5639004531199,127.058636758988,카카오,,,,,,,,,,,,,,,,,,,,,,,,,,,,2026-06-28 01:11:08,,,조건 불일치 제외,,,
청계천 주변(구),동대문구 신설동 94-4,1579283,NS,노상 주차장,1,시간제 주차장,,900,1900,900.0,1500.0,0.0,0.0,1,유료,500.0,10.0,,,,120000.0,37.5724909525128,127.027712282357,카카오,,,,,,,,,,,,,,,,,,,,,,,,,,,,2026-06-28 01:11:09,,,조건 불일치 제외,,,
청계천 주변(구),동대문구 용두동 255-41,1579310,NS,노상 주차장,1,시간제 주차장,,900,1900,900.0,1500.0,0.0,0.0,1,유료,500.0,10.0,,,,120000.0,37.5719404815897,127.027937343022,카카오,,,,,,,,,,,,,,,,,,,,,,,,,,,,2026-06-28 01:11:10,,,조건 불일치 제외,,,
신일피혁주변(구),동대문구 장안동 480-9,1579343,NS,노상 주차장,1,시간제 주차장,,900,1900,900.0,1500.0,0.0,0.0,1,유료,500.0,10.0,,,,120000.0,37.5652477855289,127.068071369522,카카오,,,,,,,,,,,,,,,,,,,,,,,,,,,,2026-06-28 01:11:11,신일피혁주변 노상공영주차장,81.8%,평가 없음,0,https://place.map.kakao.com/20576632,
목사랑시장(구),양천구 목동 723-7,1579598,NW,노외 주차장,1,시간제 주차장,,919,0,919.0,0.0,919.0,0.0,24,유료,150.0,5.0,150.0,5.0,,,37.5389724025843,126.865344885681,카카오,,,,,,,,,,,,,,,,,,,,,,,,,,,,2026-06-28 01:11:12,목사랑시장 고객주차장,88.9%,2.0,1,https://place.map.kakao.com/86741971,https://place.map.kakao.com/86741971#review
서울약령시공영주차장(구),동대문구 제기동 1082-0,1580083,NW,노외 주차장,1,시간제 주차장,02-2247-9664~6,0,2400,0.0,2400.0,0.0,2400.0,196,유료,500.0,10.0,500.0,10.0,,,37.5806561732457,127.037626748997,카카오,,,,,,,,,,,,,,,,,,,,,,,,,,,,2026-06-28 01:11:13,서울약령시 공영주차장,100.0%,4.3,6,https://place.map.kakao.com/1861309757,https://place.map.kakao.com/1861309757#review
방배1동 공영주차장(구),서초구 방배동 328-1,1580112,NW,노외 주차장,1,시간제 주차장,02-1688-1054,0,2400,0.0,2400.0,0.0,2400.0,120,유료,150.0,5.0,150.0,5.0,,120000.0,37.4854834208443,126.992469688774,카카오,,,,,,,,,,,,,,,,,,,,,,,,,,,,2026-06-28 01:11:14,방배1동공영주차장,100.0%,4.7,3,https://place.map.kakao.com/814150768,https://place.map.kakao.com/814150768#review
양재근린공원 공영주차장(구),서초구 양재동 311-0,1580114,NW,노외 주차장,1,시간제 주차장,,0,2400,0.0,2400.0,0.0,2400.0,101,유료,150.0,5.0,150.0,5.0,,120000.0,37.4716629641491,127.042357547618,카카오,,,,,,,,,,,,,,,,,,,,,,,,,,,,2026-06-28 01:11:15,양재근린공원 공영주차장 전기차충전소,78.6%,평가 없음,0,https://place.map.kakao.com/1015907422,
도봉2동  6공영주차장(구),도봉구 도봉동 59-1,1580171,NW,노외 주차장,2,거주자 우선 주차장,02-2091-4215,0,0,0.0,0.0,0.0,0.0,13,유료,,,,,,,37.683692434582,127.046319070492,카카오,,,,,,,,,,,,,,,,,,,,,,,,,,,,2026-06-28 01:11:15,도봉2동 제6공영주차장,95.2%,평가 없음,0,https://place.map.kakao.com/57992185,
방배역 노상 공영주차장(구),서초구 방배동 91-16,1580208,NS,노상 주차장,1,시간제 주차장,,900,2100,900.0,2100.0,900.0,2100.0,1,유료,500.0,10.0,500.0,10.0,,,,,,,,,,,,,,,,,,,,,,,,,,,,,,,,,2026-06-28 01:11:16,,,,,,
밤고개로21길 공영주차장(구),강남구 율현동 77-5,1581248,NW,노외 주차장,1,시간제 주차장,02-3423-6403,0,2400,0.0,2400.0,0.0,2400.0,109,유료,100.0,5.0,100.0,5.0,,70000.0,37.4733791999479,127.114560273422,카카오,,,,,,,,,,,,,,,,,,,,,,,,,,,,2026-06-28 01:11:17,밤고개로21길 공영주차장,100.0%,2.0,2,https://place.map.kakao.com/1096695799,https://place.map.kakao.com/1096695799#review
이태원1동공영(구),용산구 이태원동 22-36,1582514,NS,노상 주차장,1,시간제 주차장,02-749-5314,900,1900,900.0,1500.0,0.0,0.0,1,유료,250.0,5.0,,,,,37.5308796327148,126.995721300996,카카오,,,,,,,,,,,,,,,,,,,,,,,,,,,,2026-06-28 01:11:18,이태원1동 노상공영주차장,90.9%,5.0,2,https://place.map.kakao.com/386344439,https://place.map.kakao.com/386344439#review
수송초등학교 공영주차장(구),강북구 번동 456-0,1582630,NW,노외 주차장,1,시간제 주차장,02-944-3025,0,2400,0.0,2400.0,0.0,2400.0,185,유료,200.0,5.0,200.0,5.0,10000.0,100000.0,37.6370945445033,127.032998908193,카카오,,,,,,,,,,,,,,,,,,,,,,,,,,,,2026-06-28 01:11:19,수송초등학교 공영주차장,100.0%,평가 없음,0,https://place.map.kakao.com/988158314,
청계8(북) 공영주차장(시),동대문구 신설동 109-2,1583447,NS,노상 주차장,1,시간제 주차장,02-2274-2009,900,1900,900.0,1500.0,0.0,0.0,1,유료,450.0,5.0,450.0,5.0,,150000.0,37.57025437,127.02958564,서울API,1.0,현재~20분이내 연계데이터 존재(현재 주차대수 표현),21.0,2026-06-28 01:16:54,Y,유료,N,야간 미개방,0.0,0.0,Y,유료,150000.0,1123010100099.0,450.0,5.0,450.0,5.0,0.0,0.0,0.0,0.0,0.0,*,*,N,*,2026-06-28 01:11:19,,,,,,
여울 공영주차장(구),양천구 신월동 151-5,1583603,NW,노외 주차장,3,시간제 + 거주자 주차장,02-2644-1390,0,2400,0.0,2400.0,0.0,2400.0,76,유료,50.0,5.0,50.0,5.0,,50000.0,37.5350374503193,126.824143915043,카카오,,,,,,,,,,,,,,,,,,,,,,,,,,,,2026-06-28 01:11:19,신월3동 여울공영주차장,77.8%,평가 없음,0,https://place.map.kakao.com/619226340,
반포복개천 노상공영주차장(구),서초구 반포동 120-1,1583685,NS,노상 주차장,1,시간제 주차장,,900,2100,900.0,2100.0,0.0,0.0,1,유료,400.0,5.0,800.0,10.0,,,37.5036325394233,127.010480862212,카카오,,,,,,,,,,,,,,,,,,,,,,,,,,,,2026-06-28 01:11:20,반포복개천노상공영주차장,100.0%,2.5,2,https://place.map.kakao.com/20516430,https://place.map.kakao.com/20516430#review
벽산 노상공영(구),강북구 수유동 36-1,1583714,NS,노상 주차장,3,시간제 + 거주자 주차장,,900,1900,900.0,1500.0,0.0,0.0,1,유료,200.0,5.0,200.0,5.0,10000.0,100000.0,37.6409049826318,127.01972251724,카카오,,,,,,,,,,,,,,,,,,,,,,,,,,,,2026-06-28 01:11:21,,,조건 불일치 제외,,,
보라매상업 공영주차장(시),동작구 신대방동 431-3,1583862,NW,노외 주차장,1,시간제 주차장,,900,2100,900.0,2100.0,900.0,2100.0,61,유료,220.0,5.0,220.0,5.0,,162000.0,37.49039184,126.92340595,서울API,1.0,현재~20분이내 연계데이터 존재(현재 주차대수 표현),45.0,2026-06-28 01:16:54,Y,유료,N,야간 미개방,900.0,2100.0,N,무료,162000.0,,220.0,5.0,220.0,5.0,0.0,0.0,0.0,0.0,0.0,*,*,N,*,2026-06-28 01:11:21,,,,,,
마포중앙도서관 공영주차장(구),마포구 성산동 275-3,1583920,NW,노외 주차장,1,시간제 주차장,02-300-5046,0,2400,0.0,2400.0,0.0,2400.0,193,유료,200.0,5.0,200.0,5.0,,100000.0,37.5637891481697,126.908448966828,카카오,,,,,,,,,,,,,,,,,,,,,,,,,,,,2026-06-28 01:11:22,마포중앙도서관 공영주차장,100.0%,평가 없음,0,https://place.map.kakao.com/1913286293,
신정4동 로데오길(구),양천구 신정동 890-0,1583936,NS,노상 주차장,1,시간제 주차장,02-2695-8597,900,1900,900.0,1300.0,900.0,1900.0,1,유료,150.0,5.0,300.0,10.0,9000.0,100000.0,,,,,,,,,,,,,,,,,,,,,,,,,,,,,,,2026-06-28 01:11:23,,,,,,
석촌역(제1호)(구),송파구 송파동 68-0,1584060,NS,노상 주차장,1,시간제 주차장,,900,2100,900.0,2100.0,900.0,2100.0,1,유료,500.0,5.0,,,,,37.5057877324796,127.107836207742,카카오,,,,,,,,,,,,,,,,,,,,,,,,,,,,2026-06-28 01:11:23,석촌역노상공영주차장,75.0%,1.3,12,https://place.map.kakao.com/365568988,https://place.map.kakao.com/365568988#review
구청사주변(구),노원구 상계동 739-2,1584204,NS,노상 주차장,1,시간제 주차장,,900,2000,0.0,0.0,0.0,0.0,1,유료,250.0,5.0,250.0,5.0,16500.0,150000.0,37.6540272061498,127.056085720755,카카오,,,,,,,,,,,,,,,,,,,,,,,,,,,,2026-06-28 01:11:24,구청사주변공영주차장,88.9%,평가 없음,0,https://place.map.kakao.com/27152950,
평창동 460-3(구),종로구 평창동 460-3,1584680,NS,노상 주차장,1,시간제 주차장,02-2236-0052,1000,2200,1000.0,2200.0,1000.0,2200.0,1,유료,150.0,5.0,150.0,5.0,,,37.6106386391489,126.974890370595,카카오,,,,,,,,,,,,,,,,,,,,,,,,,,,,2026-06-28 01:11:25,평창동460-3 공영주차장,91.7%,2.3,3,https://place.map.kakao.com/678089753,https://place.map.kakao.com/678089753#review
평창동(구),종로구 평창동 114-3,1584686,NS,노상 주차장,1,시간제 주차장,02-2236-0052,1000,2000,1000.0,2000.0,1000.0,2000.0,1,유료,150.0,5.0,150.0,5.0,,,37.6114801665033,126.977593108163,카카오,,,,,,,,,,,,,,,,,,,,,,,,,,,,2026-06-28 01:11:25,평창동북악정 주차장,80.0%,평가 없음,0,https://place.map.kakao.com/1186081197,
노량진 청사 공영주차장(구),동작구 노량진동 47-2,1584694,NW,노외 주차장,1,시간제 주차장,02-820-1440,0,2400,0.0,2400.0,0.0,2400.0,86,유료,250.0,5.0,250.0,5.0,,150000.0,37.5122679320541,126.939428790239,카카오,,,,,,,,,,,,,,,,,,,,,,,,,,,,2026-06-28 01:11:26,동작구청구청사부설 공영주차장,58.3%,평가 없음,0,https://place.map.kakao.com/752349918,
곰달래로5길 노상(구),양천구 신월동 126-36,1584698,NS,노상 주차장,1,시간제 주차장,02-2698-1386,900,1900,900.0,1300.0,0.0,0.0,1,유료,150.0,5.0,300.0,10.0,9000.0,70000.0,37.5299394408955,126.834320808984,카카오,,,,,,,,,,,,,,,,,,,,,,,,,,,,2026-06-28 01:11:27,,,조건 불일치 제외,,,
신월1동저지복개1구역(구),양천구 신월동 228-1,1584702,NS,노상 주차장,1,시간제 주차장,02-2698-1386,900,1900,900.0,1300.0,0.0,0.0,1,유료,150.0,5.0,300.0,10.0,9000.0,70000.0,37.5298028499638,126.838089281267,카카오,,,,,,,,,,,,,,,,,,,,,,,,,,,,2026-06-28 01:11:28,,,조건 불일치 제외,,,
구의2동 주택가 공영주차장(구),광진구 구의동 30-10,1584793,NW,노외 주차장,1,시간제 주차장,02-2049-4596,0,2400,0.0,2400.0,0.0,2400.0,90,유료,75.0,5.0,,,,,,,,,,,,,,,,,,,,,,,,,,,,,,,,,,,2026-06-28 01:11:29,,,,,,
대왕초 공영주차장(구),강남구 세곡동 517-0,1585128,NW,노외 주차장,1,시간제 주차장,02-3423-6403,0,2400,0.0,2400.0,0.0,2400.0,101,유료,100.0,5.0,100.0,5.0,,70000.0,37.4644287655055,127.105537988065,카카오,,,,,,,,,,,,,,,,,,,,,,,,,,,,2026-06-28 01:11:29,대왕초등학교 공영주차장,84.2%,평가 없음,0,https://place.map.kakao.com/193952789,
영동6교밑 공영주차장(시),강남구 대치동 512-1,1585237,NS,노상 주차장,1,시간제 주차장,,900,1900,900.0,1700.0,900.0,1700.0,1,유료,370.0,5.0,370.0,5.0,,180000.0,37.494329,127.07097433,서울API,1.0,현재~20분이내 연계데이터 존재(현재 주차대수 표현),20.0,2026-06-28 01:16:22,Y,유료,N,야간 미개방,900.0,1700.0,N,무료,180000.0,1168010600031.0,370.0,5.0,370.0,5.0,0.0,0.0,0.0,0.0,0.0,*,*,N,*,2026-06-28 01:11:29,,,,,,
테헤란로69길 노상공영 주차장(구),강남구 삼성동 172-99,1586233,NS,노상 주차장,1,시간제 주차장,02-2176-0907,900,1900,0.0,0.0,0.0,0.0,1,유료,400.0,5.0,400.0,5.0,,150000.0,37.5063671997769,127.052594304731,카카오,,,,,,,,,,,,,,,,,,,,,,,,,,,,2026-06-28 01:11:30,테헤란로69길 노상공영주차장,100.0%,평가 없음,0,https://place.map.kakao.com/17766936,
배오개길 공영주차장(시),중구 예관동 22-1,1586294,NS,노상 주차장,1,시간제 주차장,02-2274-2009,900,1900,900.0,1500.0,0.0,0.0,1,유료,680.0,5.0,680.0,5.0,,,37.56549667,126.99829921,서울API,1.0,현재~20분이내 연계데이터 존재(현재 주차대수 표현),8.0,2026-06-28 01:16:54,Y,유료,N,야간 미개방,0.0,0.0,Y,유료,,1114013500212.0,680.0,5.0,680.0,5.0,0.0,0.0,0.0,0.0,0.0,*,*,N,*,2026-06-28 01:11:30,,,,,,
15-가600구간(구),강동구 명일동 583-0,1587380,NS,노상 주차장,1,시간제 주차장,,0,2400,0.0,0.0,0.0,0.0,1,유료,500.0,10.0,,,,,,,,,,,,,,,,,,,,,,,,,,,,,,,,,,,2026-06-28 01:11:31,,,,,,
공항2임시(구),강서구 공항동 703-0,1588311,NW,노외 주차장,1,시간제 주차장,,0,0,0.0,0.0,0.0,0.0,75,무료,,,,,7000.0,,37.5571722844546,126.816401160236,카카오,,,,,,,,,,,,,,,,,,,,,,,,,,,,2026-06-28 01:11:32,,,조건 불일치 제외,,,
양평2동청사 공영(구),영등포구 양평동4가 72-1,1588333,NW,노외 주차장,1,시간제 주차장,02-2677-1401,0,2400,0.0,2400.0,0.0,2400.0,93,유료,250.0,5.0,250.0,5.0,,120000.0,,,,,,,,,,,,,,,,,,,,,,,,,,,,,,,2026-06-28 01:11:33,,,,,,
